[
  {
    "name": "Roma",
    "latitude": "41.8931",
    "longitude": "12.4828"
  },
  {
    "name": "Milano",
    "latitude": "45.4669",
    "longitude": "9.1900"
  },
  {
    "name": "Napoli",
    "latitude": "40.8333",
    "longitude": "14.2500"
  },
  {
    "name": "Torino",
    "latitude": "45.0667",
    "longitude": "7.7000"
  },
  {
    "name": "Palermo",
    "latitude": "38.1157",
    "longitude": "13.3613"
  },
  {
    "name": "Genova",
    "latitude": "44.4072",
    "longitude": "8.9340"
  },
  {
    "name": "Bologna",
    "latitude": "44.4939",
    "longitude": "11.3428"
  },
  {
    "name": "Firenze",
    "latitude": "43.7714",
    "longitude": "11.2542"
  },
  {
    "name": "Bari",
    "latitude": "41.1253",
    "longitude": "16.8667"
  },
  {
    "name": "Catania",
    "latitude": "37.5027",
    "longitude": "15.0873"
  },
  {
    "name": "Venezia",
    "latitude": "45.4397",
    "longitude": "12.3319"
  },
  {
    "name": "Verona",
    "latitude": "45.4386",
    "longitude": "10.9928"
  },
  {
    "name": "Messina",
    "latitude": "38.1936",
    "longitude": "15.5542"
  },
  {
    "name": "Padova",
    "latitude": "45.4064",
    "longitude": "11.8778"
  },
  {
    "name": "Trieste",
    "latitude": "45.6503",
    "longitude": "13.7703"
  },
  {
    "name": "Taranto",
    "latitude": "40.4181",
    "longitude": "17.2408"
  },
  {
    "name": "Brescia",
    "latitude": "45.5389",
    "longitude": "10.2203"
  },
  {
    "name": "Parma",
    "latitude": "44.8015",
    "longitude": "10.3280"
  },
  {
    "name": "Prato",
    "latitude": "43.8808",
    "longitude": "11.0966"
  },
  {
    "name": "Modena",
    "latitude": "44.6458",
    "longitude": "10.9257"
  },
  {
    "name": "Reggio di Calabria",
    "latitude": "38.1144",
    "longitude": "15.6500"
  },
  {
    "name": "Reggio Emilia",
    "latitude": "44.7000",
    "longitude": "10.6333"
  },
  {
    "name": "Perugia",
    "latitude": "43.1121",
    "longitude": "12.3888"
  },
  {
    "name": "Ravenna",
    "latitude": "44.4178",
    "longitude": "12.1994"
  },
  {
    "name": "Livorno",
    "latitude": "43.5500",
    "longitude": "10.3167"
  },
  {
    "name": "Cagliari",
    "latitude": "39.2167",
    "longitude": "9.1167"
  },
  {
    "name": "Foggia",
    "latitude": "41.4584",
    "longitude": "15.5519"
  },
  {
    "name": "Rimini",
    "latitude": "44.0594",
    "longitude": "12.5683"
  },
  {
    "name": "Salerno",
    "latitude": "40.6806",
    "longitude": "14.7597"
  },
  {
    "name": "Ferrara",
    "latitude": "44.8353",
    "longitude": "11.6199"
  },
  {
    "name": "Latina",
    "latitude": "41.4676",
    "longitude": "12.9037"
  },
  {
    "name": "Giugliano in Campania",
    "latitude": "40.9319",
    "longitude": "14.1956"
  },
  {
    "name": "Monza",
    "latitude": "45.5836",
    "longitude": "9.2736"
  },
  {
    "name": "Siracusa",
    "latitude": "37.0692",
    "longitude": "15.2875"
  },
  {
    "name": "Bergamo",
    "latitude": "45.6950",
    "longitude": "9.6700"
  },
  {
    "name": "Pescara",
    "latitude": "42.4643",
    "longitude": "14.2142"
  },
  {
    "name": "Trento",
    "latitude": "46.0667",
    "longitude": "11.1167"
  },
  {
    "name": "Forlì",
    "latitude": "44.2225",
    "longitude": "12.0408"
  },
  {
    "name": "Sassari",
    "latitude": "40.7267",
    "longitude": "8.5592"
  },
  {
    "name": "Vicenza",
    "latitude": "45.5500",
    "longitude": "11.5500"
  },
  {
    "name": "Terni",
    "latitude": "42.5667",
    "longitude": "12.6500"
  },
  {
    "name": "Bolzano",
    "latitude": "46.5000",
    "longitude": "11.3500"
  },
  {
    "name": "Novara",
    "latitude": "45.4500",
    "longitude": "8.6167"
  },
  {
    "name": "Piacenza",
    "latitude": "45.0500",
    "longitude": "9.7000"
  },
  {
    "name": "Ancona",
    "latitude": "43.6167",
    "longitude": "13.5167"
  },
  {
    "name": "Andria",
    "latitude": "41.2317",
    "longitude": "16.3083"
  },
  {
    "name": "Udine",
    "latitude": "46.0667",
    "longitude": "13.2333"
  },
  {
    "name": "Arezzo",
    "latitude": "43.4631",
    "longitude": "11.8781"
  },
  {
    "name": "Cesena",
    "latitude": "44.1333",
    "longitude": "12.2333"
  },
  {
    "name": "Lecce",
    "latitude": "40.3520",
    "longitude": "18.1691"
  },
  {
    "name": "Pesaro",
    "latitude": "43.9102",
    "longitude": "12.9133"
  },
  {
    "name": "Barletta",
    "latitude": "41.3167",
    "longitude": "16.2833"
  },
  {
    "name": "Alessandria",
    "latitude": "44.9133",
    "longitude": "8.6200"
  },
  {
    "name": "La Spezia",
    "latitude": "44.1080",
    "longitude": "9.8289"
  },
  {
    "name": "Pistoia",
    "latitude": "43.9333",
    "longitude": "10.9167"
  },
  {
    "name": "Pisa",
    "latitude": "43.7167",
    "longitude": "10.4000"
  },
  {
    "name": "Catanzaro",
    "latitude": "38.9100",
    "longitude": "16.5875"
  },
  {
    "name": "Mestre",
    "latitude": "45.4906",
    "longitude": "12.2381"
  },
  {
    "name": "Lucca",
    "latitude": "43.8500",
    "longitude": "10.5167"
  },
  {
    "name": "Brindisi",
    "latitude": "40.6383",
    "longitude": "17.9458"
  },
  {
    "name": "Torre del Greco",
    "latitude": "40.7853",
    "longitude": "14.3953"
  },
  {
    "name": "Treviso",
    "latitude": "45.6722",
    "longitude": "12.2422"
  },
  {
    "name": "Busto Arsizio",
    "latitude": "45.6120",
    "longitude": "8.8518"
  },
  {
    "name": "Como",
    "latitude": "45.8103",
    "longitude": "9.0861"
  },
  {
    "name": "Marsala",
    "latitude": "37.7981",
    "longitude": "12.4342"
  },
  {
    "name": "Grosseto",
    "latitude": "42.7722",
    "longitude": "11.1089"
  },
  {
    "name": "Sesto San Giovanni",
    "latitude": "45.5333",
    "longitude": "9.2333"
  },
  {
    "name": "Pozzuoli",
    "latitude": "40.8231",
    "longitude": "14.1222"
  },
  {
    "name": "Varese",
    "latitude": "45.8167",
    "longitude": "8.8333"
  },
  {
    "name": "Fiumicino",
    "latitude": "41.7667",
    "longitude": "12.2333"
  },
  {
    "name": "Casoria",
    "latitude": "40.9000",
    "longitude": "14.3000"
  },
  {
    "name": "Asti",
    "latitude": "44.9000",
    "longitude": "8.2069"
  },
  {
    "name": "Cinisello Balsamo",
    "latitude": "45.5500",
    "longitude": "9.2167"
  },
  {
    "name": "Caserta",
    "latitude": "41.0667",
    "longitude": "14.3333"
  },
  {
    "name": "Gela",
    "latitude": "37.0667",
    "longitude": "14.2500"
  },
  {
    "name": "Ragusa",
    "latitude": "36.9250",
    "longitude": "14.7306"
  },
  {
    "name": "Pavia",
    "latitude": "45.1853",
    "longitude": "9.1550"
  },
  {
    "name": "Cremona",
    "latitude": "45.1333",
    "longitude": "10.0333"
  },
  {
    "name": "Carpi",
    "latitude": "44.7833",
    "longitude": "10.8850"
  },
  {
    "name": "Quartu Sant’Elena",
    "latitude": "39.2291",
    "longitude": "9.2649"
  },
  {
    "name": "Altamura",
    "latitude": "40.8167",
    "longitude": "16.5500"
  },
  {
    "name": "Imola",
    "latitude": "44.3531",
    "longitude": "11.7147"
  },
  {
    "name": "L’Aquila",
    "latitude": "42.3540",
    "longitude": "13.3920"
  },
  {
    "name": "Massa",
    "latitude": "44.0333",
    "longitude": "10.1333"
  },
  {
    "name": "Trapani",
    "latitude": "38.0175",
    "longitude": "12.5150"
  },
  {
    "name": "Viterbo",
    "latitude": "42.4186",
    "longitude": "12.1042"
  },
  {
    "name": "Cosenza",
    "latitude": "39.3000",
    "longitude": "16.2500"
  },
  {
    "name": "Potenza",
    "latitude": "40.6333",
    "longitude": "15.8000"
  },
  {
    "name": "Castellammare di Stabia",
    "latitude": "40.7000",
    "longitude": "14.4833"
  },
  {
    "name": "Afragola",
    "latitude": "40.9167",
    "longitude": "14.3167"
  },
  {
    "name": "Vittoria",
    "latitude": "36.9500",
    "longitude": "14.5333"
  },
  {
    "name": "Crotone",
    "latitude": "39.0833",
    "longitude": "17.1167"
  },
  {
    "name": "Pomezia",
    "latitude": "41.6693",
    "longitude": "12.5021"
  },
  {
    "name": "Vigevano",
    "latitude": "45.3167",
    "longitude": "8.8667"
  },
  {
    "name": "Carrara",
    "latitude": "44.0833",
    "longitude": "10.1000"
  },
  {
    "name": "Caltanissetta",
    "latitude": "37.4915",
    "longitude": "14.0624"
  },
  {
    "name": "Viareggio",
    "latitude": "43.8672",
    "longitude": "10.2506"
  },
  {
    "name": "Benevento",
    "latitude": "41.1256",
    "longitude": "14.7811"
  },
  {
    "name": "Fano",
    "latitude": "43.8435",
    "longitude": "13.0198"
  },
  {
    "name": "Savona",
    "latitude": "44.3080",
    "longitude": "8.4810"
  },
  {
    "name": "Matera",
    "latitude": "40.6667",
    "longitude": "16.6000"
  },
  {
    "name": "Olbia",
    "latitude": "40.9167",
    "longitude": "9.5000"
  },
  {
    "name": "Legnano",
    "latitude": "45.5781",
    "longitude": "8.9183"
  },
  {
    "name": "Acerra",
    "latitude": "40.9500",
    "longitude": "14.3667"
  },
  {
    "name": "Marano di Napoli",
    "latitude": "40.9000",
    "longitude": "14.1833"
  },
  {
    "name": "Molfetta",
    "latitude": "41.2000",
    "longitude": "16.6000"
  },
  {
    "name": "Agrigento",
    "latitude": "37.3111",
    "longitude": "13.5765"
  },
  {
    "name": "Faenza",
    "latitude": "44.2856",
    "longitude": "11.8833"
  },
  {
    "name": "Cerignola",
    "latitude": "41.2667",
    "longitude": "15.9000"
  },
  {
    "name": "Moncalieri",
    "latitude": "45.0000",
    "longitude": "7.6833"
  },
  {
    "name": "Foligno",
    "latitude": "42.9561",
    "longitude": "12.7033"
  },
  {
    "name": "Manfredonia",
    "latitude": "41.6333",
    "longitude": "15.9167"
  },
  {
    "name": "Tivoli",
    "latitude": "41.9667",
    "longitude": "12.8000"
  },
  {
    "name": "Cuneo",
    "latitude": "44.3833",
    "longitude": "7.5500"
  },
  {
    "name": "Trani",
    "latitude": "41.2667",
    "longitude": "16.4167"
  },
  {
    "name": "Bisceglie",
    "latitude": "41.2409",
    "longitude": "16.5021"
  },
  {
    "name": "Bitonto",
    "latitude": "41.1083",
    "longitude": "16.6917"
  },
  {
    "name": "Bagheria",
    "latitude": "38.0833",
    "longitude": "13.5000"
  },
  {
    "name": "Portici",
    "latitude": "40.8197",
    "longitude": "14.3411"
  },
  {
    "name": "Modica",
    "latitude": "36.8672",
    "longitude": "14.7614"
  },
  {
    "name": "San Remo",
    "latitude": "43.8175",
    "longitude": "7.7750"
  },
  {
    "name": "Teramo",
    "latitude": "42.6589",
    "longitude": "13.7039"
  },
  {
    "name": "Montesilvano",
    "latitude": "42.5119",
    "longitude": "14.1373"
  },
  {
    "name": "Avellino",
    "latitude": "40.9153",
    "longitude": "14.7897"
  },
  {
    "name": "Siena",
    "latitude": "43.3183",
    "longitude": "11.3314"
  },
  {
    "name": "Gallarate",
    "latitude": "45.6649",
    "longitude": "8.7914"
  },
  {
    "name": "Velletri",
    "latitude": "41.6667",
    "longitude": "12.7833"
  },
  {
    "name": "Cava de’ Tirreni",
    "latitude": "40.7008",
    "longitude": "14.7056"
  },
  {
    "name": "San Severo",
    "latitude": "41.6951",
    "longitude": "15.3793"
  },
  {
    "name": "Aversa",
    "latitude": "40.9730",
    "longitude": "14.2065"
  },
  {
    "name": "Ercolano",
    "latitude": "40.8068",
    "longitude": "14.3526"
  },
  {
    "name": "Anzio",
    "latitude": "41.4472",
    "longitude": "12.6283"
  },
  {
    "name": "Acireale",
    "latitude": "37.6125",
    "longitude": "15.1656"
  },
  {
    "name": "Civitavecchia",
    "latitude": "42.1000",
    "longitude": "11.8000"
  },
  {
    "name": "Mazara del Vallo",
    "latitude": "37.6517",
    "longitude": "12.5875"
  },
  {
    "name": "Rovigo",
    "latitude": "45.0809",
    "longitude": "11.7940"
  },
  {
    "name": "Pordenone",
    "latitude": "45.9626",
    "longitude": "12.6563"
  },
  {
    "name": "Battipaglia",
    "latitude": "40.6167",
    "longitude": "14.9833"
  },
  {
    "name": "Rho",
    "latitude": "45.5333",
    "longitude": "9.0333"
  },
  {
    "name": "Chieti",
    "latitude": "42.3511",
    "longitude": "14.1674"
  },
  {
    "name": "Scafati",
    "latitude": "40.7536",
    "longitude": "14.5253"
  },
  {
    "name": "Scandicci",
    "latitude": "43.7544",
    "longitude": "11.1894"
  },
  {
    "name": "Misterbianco",
    "latitude": "37.5183",
    "longitude": "15.0069"
  },
  {
    "name": "Nettuno",
    "latitude": "41.4667",
    "longitude": "12.6667"
  },
  {
    "name": "Ardea",
    "latitude": "41.6167",
    "longitude": "12.5500"
  },
  {
    "name": "Collegno",
    "latitude": "45.0833",
    "longitude": "7.5833"
  },
  {
    "name": "Chioggia",
    "latitude": "45.2189",
    "longitude": "12.2785"
  },
  {
    "name": "Mantova",
    "latitude": "45.1564",
    "longitude": "10.7911"
  },
  {
    "name": "Campobasso",
    "latitude": "41.5610",
    "longitude": "14.6684"
  },
  {
    "name": "Casalnuovo di Napoli",
    "latitude": "40.9167",
    "longitude": "14.3500"
  },
  {
    "name": "Sesto Fiorentino",
    "latitude": "43.8333",
    "longitude": "11.2000"
  },
  {
    "name": "Monopoli",
    "latitude": "40.9500",
    "longitude": "17.3000"
  },
  {
    "name": "Martina Franca",
    "latitude": "40.7000",
    "longitude": "17.3333"
  },
  {
    "name": "Ascoli Piceno",
    "latitude": "42.8547",
    "longitude": "13.5753"
  },
  {
    "name": "Rivoli",
    "latitude": "45.0725",
    "longitude": "7.5272"
  },
  {
    "name": "Empoli",
    "latitude": "43.7167",
    "longitude": "10.9500"
  },
  {
    "name": "Corato",
    "latitude": "41.1500",
    "longitude": "16.4000"
  },
  {
    "name": "Lecco",
    "latitude": "45.8500",
    "longitude": "9.4000"
  },
  {
    "name": "Paterno",
    "latitude": "37.5667",
    "longitude": "14.9000"
  },
  {
    "name": "Nichelino",
    "latitude": "45.0000",
    "longitude": "7.6500"
  },
  {
    "name": "Cologno Monzese",
    "latitude": "45.5286",
    "longitude": "9.2783"
  },
  {
    "name": "Rieti",
    "latitude": "42.4044",
    "longitude": "12.8567"
  },
  {
    "name": "San Benedetto del Tronto",
    "latitude": "42.9438",
    "longitude": "13.8833"
  },
  {
    "name": "Settimo Torinese",
    "latitude": "45.1333",
    "longitude": "7.7667"
  },
  {
    "name": "Paderno Dugnano",
    "latitude": "45.5667",
    "longitude": "9.1667"
  },
  {
    "name": "Campi Bisenzio",
    "latitude": "43.8256",
    "longitude": "11.1333"
  },
  {
    "name": "Terracina",
    "latitude": "41.2833",
    "longitude": "13.2500"
  },
  {
    "name": "Vercelli",
    "latitude": "45.3167",
    "longitude": "8.4167"
  },
  {
    "name": "Capannori",
    "latitude": "43.8756",
    "longitude": "10.5736"
  },
  {
    "name": "Frosinone",
    "latitude": "41.6333",
    "longitude": "13.3500"
  },
  {
    "name": "Nocera Inferiore",
    "latitude": "40.7500",
    "longitude": "14.6333"
  },
  {
    "name": "Lissone",
    "latitude": "45.6167",
    "longitude": "9.2500"
  },
  {
    "name": "Alcamo",
    "latitude": "37.9667",
    "longitude": "12.9667"
  },
  {
    "name": "Lodi",
    "latitude": "45.3167",
    "longitude": "9.5000"
  },
  {
    "name": "Cascina",
    "latitude": "43.6800",
    "longitude": "10.5003"
  },
  {
    "name": "Seregno",
    "latitude": "45.6500",
    "longitude": "9.2000"
  },
  {
    "name": "San Giorgio a Cremano",
    "latitude": "40.8333",
    "longitude": "14.3333"
  },
  {
    "name": "Senigallia",
    "latitude": "43.7131",
    "longitude": "13.2183"
  },
  {
    "name": "Marino",
    "latitude": "41.7667",
    "longitude": "12.6667"
  },
  {
    "name": "Biella",
    "latitude": "45.5664",
    "longitude": "8.0533"
  },
  {
    "name": "Alghero",
    "latitude": "40.5600",
    "longitude": "8.3150"
  },
  {
    "name": "Gravina in Puglia",
    "latitude": "40.8206",
    "longitude": "16.4233"
  },
  {
    "name": "Bassano del Grappa",
    "latitude": "45.7686",
    "longitude": "11.7367"
  },
  {
    "name": "Rozzano",
    "latitude": "45.3833",
    "longitude": "9.1500"
  },
  {
    "name": "Torre Annunziata",
    "latitude": "40.7569",
    "longitude": "14.4444"
  },
  {
    "name": "Civitanova Marche",
    "latitude": "43.3068",
    "longitude": "13.7286"
  },
  {
    "name": "Imperia",
    "latitude": "43.8865",
    "longitude": "8.0297"
  },
  {
    "name": "Avezzano",
    "latitude": "42.0310",
    "longitude": "13.4264"
  },
  {
    "name": "Desio",
    "latitude": "45.6167",
    "longitude": "9.2167"
  },
  {
    "name": "San Donà di Piave",
    "latitude": "45.6298",
    "longitude": "12.5641"
  },
  {
    "name": "Macerata",
    "latitude": "43.3003",
    "longitude": "13.4533"
  },
  {
    "name": "Ladispoli",
    "latitude": "41.9544",
    "longitude": "12.0742"
  },
  {
    "name": "Barcellona-Pozzo di Gotto",
    "latitude": "38.1500",
    "longitude": "15.2167"
  },
  {
    "name": "Albano Laziale",
    "latitude": "41.7333",
    "longitude": "12.6667"
  },
  {
    "name": "Monterotondo",
    "latitude": "42.0500",
    "longitude": "12.6167"
  },
  {
    "name": "Sassuolo",
    "latitude": "44.5517",
    "longitude": "10.7856"
  },
  {
    "name": "Sciacca",
    "latitude": "37.5092",
    "longitude": "13.0889"
  },
  {
    "name": "Merano",
    "latitude": "46.6689",
    "longitude": "11.1639"
  },
  {
    "name": "Corigliano Calabro",
    "latitude": "39.6000",
    "longitude": "16.5167"
  },
  {
    "name": "Iesi",
    "latitude": "43.5228",
    "longitude": "13.2439"
  },
  {
    "name": "Eboli",
    "latitude": "40.6169",
    "longitude": "15.0564"
  },
  {
    "name": "Cantù",
    "latitude": "45.7333",
    "longitude": "9.1333"
  },
  {
    "name": "Rovereto",
    "latitude": "45.8833",
    "longitude": "11.0342"
  },
  {
    "name": "Pomigliano d’Arco",
    "latitude": "40.9167",
    "longitude": "14.4000"
  },
  {
    "name": "Marcianise",
    "latitude": "41.0333",
    "longitude": "14.3000"
  },
  {
    "name": "Fondi",
    "latitude": "41.3500",
    "longitude": "13.4167"
  },
  {
    "name": "Fasano",
    "latitude": "40.8333",
    "longitude": "17.3667"
  },
  {
    "name": "Città di Castello",
    "latitude": "43.4574",
    "longitude": "12.2403"
  },
  {
    "name": "Saronno",
    "latitude": "45.6255",
    "longitude": "9.0370"
  },
  {
    "name": "Voghera",
    "latitude": "44.9925",
    "longitude": "9.0092"
  },
  {
    "name": "Schio",
    "latitude": "45.7111",
    "longitude": "11.3556"
  },
  {
    "name": "Monreale",
    "latitude": "38.0817",
    "longitude": "13.2889"
  },
  {
    "name": "Maddaloni",
    "latitude": "41.0333",
    "longitude": "14.3833"
  },
  {
    "name": "Carini",
    "latitude": "38.1333",
    "longitude": "13.1833"
  },
  {
    "name": "Ciampino",
    "latitude": "41.8000",
    "longitude": "12.6000"
  },
  {
    "name": "Cesano Maderno",
    "latitude": "45.6272",
    "longitude": "9.1472"
  },
  {
    "name": "Mira",
    "latitude": "45.4375",
    "longitude": "12.1329"
  },
  {
    "name": "Modugno",
    "latitude": "41.0833",
    "longitude": "16.7833"
  },
  {
    "name": "San Giuliano Milanese",
    "latitude": "45.4000",
    "longitude": "9.2833"
  },
  {
    "name": "Caltagirone",
    "latitude": "37.2333",
    "longitude": "14.5167"
  },
  {
    "name": "Formia",
    "latitude": "41.2564",
    "longitude": "13.6069"
  },
  {
    "name": "Cerveteri",
    "latitude": "42.0000",
    "longitude": "12.1000"
  },
  {
    "name": "Spoleto",
    "latitude": "42.7333",
    "longitude": "12.7333"
  },
  {
    "name": "Melito di Napoli",
    "latitude": "40.9167",
    "longitude": "14.2333"
  },
  {
    "name": "Caivano",
    "latitude": "40.9500",
    "longitude": "14.3000"
  },
  {
    "name": "Grugliasco",
    "latitude": "45.0689",
    "longitude": "7.5786"
  },
  {
    "name": "Fermo",
    "latitude": "43.1604",
    "longitude": "13.7181"
  },
  {
    "name": "Licata",
    "latitude": "37.1083",
    "longitude": "13.9469"
  },
  {
    "name": "Cisterna di Latina",
    "latitude": "41.6000",
    "longitude": "12.8333"
  },
  {
    "name": "Chieri",
    "latitude": "45.0131",
    "longitude": "7.8228"
  },
  {
    "name": "Pioltello",
    "latitude": "45.5000",
    "longitude": "9.3333"
  },
  {
    "name": "Rossano",
    "latitude": "39.5667",
    "longitude": "16.6333"
  },
  {
    "name": "Nuoro",
    "latitude": "40.3201",
    "longitude": "9.3281"
  },
  {
    "name": "Cassino",
    "latitude": "41.4917",
    "longitude": "13.8333"
  },
  {
    "name": "Bollate",
    "latitude": "45.5500",
    "longitude": "9.1167"
  },
  {
    "name": "Casalecchio di Reno",
    "latitude": "44.4833",
    "longitude": "11.2833"
  },
  {
    "name": "Francavilla Fontana",
    "latitude": "40.5314",
    "longitude": "17.5858"
  },
  {
    "name": "Pinerolo",
    "latitude": "44.8833",
    "longitude": "7.3333"
  },
  {
    "name": "Augusta",
    "latitude": "37.2303",
    "longitude": "15.2194"
  },
  {
    "name": "Rende",
    "latitude": "39.3333",
    "longitude": "16.1833"
  },
  {
    "name": "Canicattì",
    "latitude": "37.3600",
    "longitude": "13.8511"
  },
  {
    "name": "Belluno",
    "latitude": "46.1408",
    "longitude": "12.2156"
  },
  {
    "name": "Adrano",
    "latitude": "37.6625",
    "longitude": "14.8356"
  },
  {
    "name": "Cento",
    "latitude": "44.7333",
    "longitude": "11.2833"
  },
  {
    "name": "Segrate",
    "latitude": "45.4900",
    "longitude": "9.2953"
  },
  {
    "name": "Limbiate",
    "latitude": "45.5972",
    "longitude": "9.1300"
  },
  {
    "name": "Conegliano",
    "latitude": "45.8872",
    "longitude": "12.2969"
  },
  {
    "name": "Osimo",
    "latitude": "43.4861",
    "longitude": "13.4821"
  },
  {
    "name": "Riccione Marina",
    "latitude": "44.0000",
    "longitude": "12.6500"
  },
  {
    "name": "Lanciano",
    "latitude": "42.2312",
    "longitude": "14.3905"
  },
  {
    "name": "Mugnano di Napoli",
    "latitude": "40.9094",
    "longitude": "14.2098"
  },
  {
    "name": "Somma Vesuviana",
    "latitude": "40.8725",
    "longitude": "14.4369"
  },
  {
    "name": "Brugherio",
    "latitude": "45.5508",
    "longitude": "9.3011"
  },
  {
    "name": "Corsico",
    "latitude": "45.4333",
    "longitude": "9.1167"
  },
  {
    "name": "Gorizia",
    "latitude": "45.9352",
    "longitude": "13.6193"
  },
  {
    "name": "Formigine",
    "latitude": "44.5739",
    "longitude": "10.8478"
  },
  {
    "name": "Cernusco sul Naviglio",
    "latitude": "45.5167",
    "longitude": "9.3333"
  },
  {
    "name": "Crema",
    "latitude": "45.3667",
    "longitude": "9.6833"
  },
  {
    "name": "Arzano",
    "latitude": "40.9153",
    "longitude": "14.2681"
  },
  {
    "name": "Angri",
    "latitude": "40.7431",
    "longitude": "14.5694"
  },
  {
    "name": "Aosta",
    "latitude": "45.7372",
    "longitude": "7.3206"
  },
  {
    "name": "Casale Monferrato",
    "latitude": "45.1342",
    "longitude": "8.4583"
  },
  {
    "name": "Sant’Antimo",
    "latitude": "40.9422",
    "longitude": "14.2348"
  },
  {
    "name": "Piombino",
    "latitude": "42.9348",
    "longitude": "10.5221"
  },
  {
    "name": "Vibo Valentia",
    "latitude": "38.6753",
    "longitude": "16.0959"
  },
  {
    "name": "Termoli",
    "latitude": "42.0028",
    "longitude": "14.9947"
  },
  {
    "name": "Venaria Reale",
    "latitude": "45.1167",
    "longitude": "7.6333"
  },
  {
    "name": "Castelfranco Veneto",
    "latitude": "45.6667",
    "longitude": "11.9333"
  },
  {
    "name": "Villafranca di Verona",
    "latitude": "45.3500",
    "longitude": "10.8500"
  },
  {
    "name": "Lucera",
    "latitude": "41.5000",
    "longitude": "15.3333"
  },
  {
    "name": "Castelfranco Emilia",
    "latitude": "44.5967",
    "longitude": "11.0528"
  },
  {
    "name": "Santa Maria Capua Vetere",
    "latitude": "41.0833",
    "longitude": "14.2500"
  },
  {
    "name": "Massafra",
    "latitude": "40.5833",
    "longitude": "17.1167"
  },
  {
    "name": "Abbiategrasso",
    "latitude": "45.4009",
    "longitude": "8.9185"
  },
  {
    "name": "San Donato Milanese",
    "latitude": "45.4167",
    "longitude": "9.2667"
  },
  {
    "name": "San Lazzaro di Savena",
    "latitude": "44.4716",
    "longitude": "11.4049"
  },
  {
    "name": "Camaiore",
    "latitude": "43.9333",
    "longitude": "10.3000"
  },
  {
    "name": "Favara",
    "latitude": "37.3186",
    "longitude": "13.6631"
  },
  {
    "name": "Mascalucia",
    "latitude": "37.5667",
    "longitude": "15.0500"
  },
  {
    "name": "Grottaglie",
    "latitude": "40.5333",
    "longitude": "17.4333"
  },
  {
    "name": "Frattamaggiore",
    "latitude": "40.9417",
    "longitude": "14.2722"
  },
  {
    "name": "Partinico",
    "latitude": "38.0500",
    "longitude": "13.1167"
  },
  {
    "name": "Gubbio",
    "latitude": "43.3518",
    "longitude": "12.5773"
  },
  {
    "name": "Oristano",
    "latitude": "39.9058",
    "longitude": "8.5916"
  },
  {
    "name": "Sarno",
    "latitude": "40.8167",
    "longitude": "14.6167"
  },
  {
    "name": "San Giuseppe Vesuviano",
    "latitude": "40.8333",
    "longitude": "14.5000"
  },
  {
    "name": "Castelvetrano",
    "latitude": "37.6786",
    "longitude": "12.7917"
  },
  {
    "name": "Alba",
    "latitude": "44.6915",
    "longitude": "8.0256"
  },
  {
    "name": "San Giuliano Terme",
    "latitude": "43.7625",
    "longitude": "10.4414"
  },
  {
    "name": "Nardò",
    "latitude": "40.1797",
    "longitude": "18.0333"
  },
  {
    "name": "Avola",
    "latitude": "36.9167",
    "longitude": "15.1333"
  },
  {
    "name": "Montebelluna",
    "latitude": "45.7753",
    "longitude": "12.0389"
  },
  {
    "name": "Milazzo",
    "latitude": "38.2170",
    "longitude": "15.2370"
  },
  {
    "name": "Villaricca",
    "latitude": "40.9167",
    "longitude": "14.2000"
  },
  {
    "name": "Ostuni",
    "latitude": "40.7322",
    "longitude": "17.5778"
  },
  {
    "name": "Manduria",
    "latitude": "40.4028",
    "longitude": "17.6342"
  },
  {
    "name": "Rosignano Marittimo",
    "latitude": "43.4000",
    "longitude": "10.4667"
  },
  {
    "name": "Fabriano",
    "latitude": "43.3386",
    "longitude": "12.9085"
  },
  {
    "name": "Verbania",
    "latitude": "45.9228",
    "longitude": "8.5519"
  },
  {
    "name": "Marigliano",
    "latitude": "40.9333",
    "longitude": "14.4500"
  },
  {
    "name": "Canosa di Puglia",
    "latitude": "41.2167",
    "longitude": "16.0667"
  },
  {
    "name": "Comiso",
    "latitude": "36.9500",
    "longitude": "14.6000"
  },
  {
    "name": "Treviglio",
    "latitude": "45.5214",
    "longitude": "9.5928"
  },
  {
    "name": "Rapallo",
    "latitude": "44.3500",
    "longitude": "9.2333"
  },
  {
    "name": "Bra",
    "latitude": "44.7000",
    "longitude": "7.8500"
  },
  {
    "name": "Aci Catena",
    "latitude": "37.6000",
    "longitude": "15.1500"
  },
  {
    "name": "Misilmeri",
    "latitude": "38.0333",
    "longitude": "13.4500"
  },
  {
    "name": "Pontedera",
    "latitude": "43.6625",
    "longitude": "10.6328"
  },
  {
    "name": "Poggibonsi",
    "latitude": "43.4667",
    "longitude": "11.1500"
  },
  {
    "name": "Selargius",
    "latitude": "39.2537",
    "longitude": "9.1606"
  },
  {
    "name": "Desenzano del Garda",
    "latitude": "45.4689",
    "longitude": "10.5350"
  },
  {
    "name": "Carmagnola",
    "latitude": "44.8500",
    "longitude": "7.7167"
  },
  {
    "name": "Gragnano",
    "latitude": "40.6957",
    "longitude": "14.5154"
  },
  {
    "name": "Mondragone",
    "latitude": "41.1000",
    "longitude": "13.8833"
  },
  {
    "name": "Alatri",
    "latitude": "41.7264",
    "longitude": "13.3422"
  },
  {
    "name": "Cervia",
    "latitude": "44.2500",
    "longitude": "12.3667"
  },
  {
    "name": "Vittorio Veneto",
    "latitude": "45.9833",
    "longitude": "12.3000"
  },
  {
    "name": "Assisi",
    "latitude": "43.0700",
    "longitude": "12.6175"
  },
  {
    "name": "Carbonia",
    "latitude": "39.1668",
    "longitude": "8.5220"
  },
  {
    "name": "Novi Ligure",
    "latitude": "44.7592",
    "longitude": "8.7856"
  },
  {
    "name": "San Giovanni in Persiceto",
    "latitude": "44.6408",
    "longitude": "11.1850"
  },
  {
    "name": "Belpasso",
    "latitude": "37.5833",
    "longitude": "14.9833"
  },
  {
    "name": "Cecina",
    "latitude": "43.3139",
    "longitude": "10.5250"
  },
  {
    "name": "San Miniato",
    "latitude": "43.6833",
    "longitude": "10.8500"
  },
  {
    "name": "Boscoreale",
    "latitude": "40.7750",
    "longitude": "14.4750"
  },
  {
    "name": "Spinea",
    "latitude": "45.4931",
    "longitude": "12.1606"
  },
  {
    "name": "Mogliano Veneto",
    "latitude": "45.5619",
    "longitude": "12.2364"
  },
  {
    "name": "Parabiago",
    "latitude": "45.5583",
    "longitude": "8.9477"
  },
  {
    "name": "Sant’Anastasia",
    "latitude": "40.8667",
    "longitude": "14.4000"
  },
  {
    "name": "Erice",
    "latitude": "38.0375",
    "longitude": "12.5875"
  },
  {
    "name": "Gioia del Colle",
    "latitude": "40.8000",
    "longitude": "16.9333"
  },
  {
    "name": "Giarre",
    "latitude": "37.7297",
    "longitude": "15.1844"
  },
  {
    "name": "Chiavari",
    "latitude": "44.3164",
    "longitude": "9.3237"
  },
  {
    "name": "Tortona",
    "latitude": "44.8942",
    "longitude": "8.8656"
  },
  {
    "name": "Enna",
    "latitude": "37.5667",
    "longitude": "14.2667"
  },
  {
    "name": "Triggiano",
    "latitude": "41.0667",
    "longitude": "16.9167"
  },
  {
    "name": "San Giovanni Rotondo",
    "latitude": "41.7000",
    "longitude": "15.7333"
  },
  {
    "name": "Mirano",
    "latitude": "45.5000",
    "longitude": "12.1000"
  },
  {
    "name": "Garbagnate Milanese",
    "latitude": "45.5771",
    "longitude": "9.0814"
  },
  {
    "name": "Terlizzi",
    "latitude": "41.1333",
    "longitude": "16.5500"
  },
  {
    "name": "Scicli",
    "latitude": "36.7914",
    "longitude": "14.7025"
  },
  {
    "name": "Niscemi",
    "latitude": "37.1500",
    "longitude": "14.3833"
  },
  {
    "name": "Assèmini",
    "latitude": "39.2897",
    "longitude": "9.0048"
  },
  {
    "name": "Fidenza",
    "latitude": "44.8667",
    "longitude": "10.0667"
  },
  {
    "name": "Galatina",
    "latitude": "40.1667",
    "longitude": "18.1667"
  },
  {
    "name": "Mesagne",
    "latitude": "40.5667",
    "longitude": "17.8000"
  },
  {
    "name": "Iglesias",
    "latitude": "39.3103",
    "longitude": "8.5372"
  },
  {
    "name": "Chivasso",
    "latitude": "45.1833",
    "longitude": "7.8833"
  },
  {
    "name": "Putignano",
    "latitude": "40.8492",
    "longitude": "17.1225"
  },
  {
    "name": "Santeramo in Colle",
    "latitude": "40.8000",
    "longitude": "16.7667"
  },
  {
    "name": "Quarrata",
    "latitude": "43.8475",
    "longitude": "10.9833"
  },
  {
    "name": "Bacoli",
    "latitude": "40.8000",
    "longitude": "14.0833"
  },
  {
    "name": "Porto Sant’Elpidio",
    "latitude": "43.2586",
    "longitude": "13.7585"
  },
  {
    "name": "Noicattaro",
    "latitude": "41.0333",
    "longitude": "16.9833"
  },
  {
    "name": "Bresso",
    "latitude": "45.5333",
    "longitude": "9.1833"
  },
  {
    "name": "Pontecagnano",
    "latitude": "40.6500",
    "longitude": "14.8833"
  },
  {
    "name": "Iesolo",
    "latitude": "45.5331",
    "longitude": "12.6448"
  },
  {
    "name": "Conversano",
    "latitude": "40.9667",
    "longitude": "17.1167"
  },
  {
    "name": "Vimercate",
    "latitude": "45.6167",
    "longitude": "9.3667"
  },
  {
    "name": "Albignasego",
    "latitude": "45.3500",
    "longitude": "11.8667"
  },
  {
    "name": "Falconara Marittima",
    "latitude": "43.6296",
    "longitude": "13.3968"
  },
  {
    "name": "Termini Imerese",
    "latitude": "37.9833",
    "longitude": "13.7000"
  },
  {
    "name": "Valdagno",
    "latitude": "45.6500",
    "longitude": "11.3000"
  },
  {
    "name": "Sora",
    "latitude": "41.7167",
    "longitude": "13.6167"
  },
  {
    "name": "Cesenatico",
    "latitude": "44.2012",
    "longitude": "12.4007"
  },
  {
    "name": "Giussano",
    "latitude": "45.7000",
    "longitude": "9.2167"
  },
  {
    "name": "Castel Volturno",
    "latitude": "41.0500",
    "longitude": "13.9167"
  },
  {
    "name": "Lainate",
    "latitude": "45.5667",
    "longitude": "9.0333"
  },
  {
    "name": "Scandiano",
    "latitude": "44.5925",
    "longitude": "10.6878"
  },
  {
    "name": "Qualiano",
    "latitude": "40.9167",
    "longitude": "14.1500"
  },
  {
    "name": "Montichiari",
    "latitude": "45.4161",
    "longitude": "10.3917"
  },
  {
    "name": "Correggio",
    "latitude": "44.7717",
    "longitude": "10.7806"
  },
  {
    "name": "Francavilla al Mare",
    "latitude": "42.4181",
    "longitude": "14.2919"
  },
  {
    "name": "Arzignano",
    "latitude": "45.5203",
    "longitude": "11.3397"
  },
  {
    "name": "Roseto degli Abruzzi",
    "latitude": "42.6833",
    "longitude": "14.0167"
  },
  {
    "name": "Bagno a Ripoli",
    "latitude": "43.7500",
    "longitude": "11.3167"
  },
  {
    "name": "Mola di Bari",
    "latitude": "41.0667",
    "longitude": "17.0833"
  },
  {
    "name": "Seriate",
    "latitude": "45.6847",
    "longitude": "9.7178"
  },
  {
    "name": "San Giovanni Lupatoto",
    "latitude": "45.3833",
    "longitude": "11.0333"
  },
  {
    "name": "Ruvo di Puglia",
    "latitude": "41.1173",
    "longitude": "16.4837"
  },
  {
    "name": "Vignola",
    "latitude": "44.4808",
    "longitude": "11.0022"
  },
  {
    "name": "Legnago",
    "latitude": "45.1929",
    "longitude": "11.3115"
  },
  {
    "name": "Pompei",
    "latitude": "40.7500",
    "longitude": "14.5000"
  },
  {
    "name": "Portogruaro",
    "latitude": "45.7833",
    "longitude": "12.8333"
  },
  {
    "name": "Mariano Comense",
    "latitude": "45.7000",
    "longitude": "9.1833"
  },
  {
    "name": "Sezze",
    "latitude": "41.5000",
    "longitude": "13.0667"
  },
  {
    "name": "Montevarchi",
    "latitude": "43.5234",
    "longitude": "11.5679"
  },
  {
    "name": "Fossano",
    "latitude": "44.5500",
    "longitude": "7.7333"
  },
  {
    "name": "Nocera Superiore",
    "latitude": "40.7417",
    "longitude": "14.6722"
  },
  {
    "name": "Thiene",
    "latitude": "45.7072",
    "longitude": "11.4786"
  },
  {
    "name": "Sulmona",
    "latitude": "42.0480",
    "longitude": "13.9262"
  },
  {
    "name": "Copertino",
    "latitude": "40.2667",
    "longitude": "18.0500"
  },
  {
    "name": "Ventimiglia",
    "latitude": "43.7903",
    "longitude": "7.6083"
  },
  {
    "name": "Albenga",
    "latitude": "44.0491",
    "longitude": "8.2130"
  },
  {
    "name": "Noto",
    "latitude": "36.8833",
    "longitude": "15.0833"
  },
  {
    "name": "Biancavilla",
    "latitude": "37.6453",
    "longitude": "14.8636"
  },
  {
    "name": "Magenta",
    "latitude": "45.4603",
    "longitude": "8.8766"
  },
  {
    "name": "Genzano di Roma",
    "latitude": "41.7022",
    "longitude": "12.6925"
  },
  {
    "name": "Giulianova",
    "latitude": "42.7525",
    "longitude": "13.9567"
  },
  {
    "name": "Ottaviano",
    "latitude": "40.8500",
    "longitude": "14.4775"
  },
  {
    "name": "Pietrasanta",
    "latitude": "43.9452",
    "longitude": "10.2183"
  },
  {
    "name": "Mirandola",
    "latitude": "44.8873",
    "longitude": "11.0660"
  },
  {
    "name": "Capoterra",
    "latitude": "39.1752",
    "longitude": "8.9709"
  },
  {
    "name": "Muggiò",
    "latitude": "45.6000",
    "longitude": "9.2333"
  },
  {
    "name": "Castiglione delle Stiviere",
    "latitude": "45.4000",
    "longitude": "10.5000"
  },
  {
    "name": "Lentini",
    "latitude": "37.2833",
    "longitude": "15.0000"
  },
  {
    "name": "Dalmine",
    "latitude": "45.6500",
    "longitude": "9.6000"
  },
  {
    "name": "Meda",
    "latitude": "45.6667",
    "longitude": "9.1667"
  },
  {
    "name": "Seveso",
    "latitude": "45.6474",
    "longitude": "9.1387"
  },
  {
    "name": "Ivrea",
    "latitude": "45.4622",
    "longitude": "7.8747"
  },
  {
    "name": "San Giovanni la Punta",
    "latitude": "37.5833",
    "longitude": "15.1000"
  },
  {
    "name": "Ceccano",
    "latitude": "41.5667",
    "longitude": "13.3333"
  },
  {
    "name": "Orbassano",
    "latitude": "45.0000",
    "longitude": "7.5333"
  },
  {
    "name": "Nova Milanese",
    "latitude": "45.5833",
    "longitude": "9.2000"
  },
  {
    "name": "Montecchio Maggiore",
    "latitude": "45.5037",
    "longitude": "11.4120"
  },
  {
    "name": "Fucecchio",
    "latitude": "43.7333",
    "longitude": "10.8000"
  },
  {
    "name": "Mentana",
    "latitude": "42.0337",
    "longitude": "12.6444"
  },
  {
    "name": "Ortona",
    "latitude": "42.3557",
    "longitude": "14.4036"
  },
  {
    "name": "Vigonza",
    "latitude": "45.4500",
    "longitude": "11.9833"
  },
  {
    "name": "Selvazzano Dentro",
    "latitude": "45.3833",
    "longitude": "11.7833"
  },
  {
    "name": "Floridia",
    "latitude": "37.0833",
    "longitude": "15.1500"
  },
  {
    "name": "Palma di Montechiaro",
    "latitude": "37.1936",
    "longitude": "13.7658"
  },
  {
    "name": "Cardito",
    "latitude": "40.9362",
    "longitude": "14.2993"
  },
  {
    "name": "San Cataldo",
    "latitude": "37.4833",
    "longitude": "13.9833"
  },
  {
    "name": "Frascati",
    "latitude": "41.8167",
    "longitude": "12.6833"
  },
  {
    "name": "Ariano Irpino",
    "latitude": "41.1528",
    "longitude": "15.0889"
  },
  {
    "name": "Mondovì",
    "latitude": "44.3833",
    "longitude": "7.8167"
  },
  {
    "name": "Massarosa",
    "latitude": "43.8667",
    "longitude": "10.3333"
  },
  {
    "name": "Ginosa",
    "latitude": "40.5000",
    "longitude": "16.7500"
  },
  {
    "name": "Porto Torres",
    "latitude": "40.8369",
    "longitude": "8.4014"
  },
  {
    "name": "Mercato San Severino",
    "latitude": "40.7833",
    "longitude": "14.7667"
  },
  {
    "name": "Pachino",
    "latitude": "36.7167",
    "longitude": "15.1000"
  },
  {
    "name": "Comacchio",
    "latitude": "44.7000",
    "longitude": "12.1833"
  },
  {
    "name": "Sant’Arcangelo di Romagna",
    "latitude": "44.0633",
    "longitude": "12.4466"
  },
  {
    "name": "Sarzana",
    "latitude": "44.1136",
    "longitude": "9.9600"
  },
  {
    "name": "Cortona",
    "latitude": "43.2756",
    "longitude": "11.9881"
  },
  {
    "name": "Castrovillari",
    "latitude": "39.8167",
    "longitude": "16.2000"
  },
  {
    "name": "Bressanone",
    "latitude": "46.7167",
    "longitude": "11.6500"
  },
  {
    "name": "Poggiomarino",
    "latitude": "40.8000",
    "longitude": "14.5500"
  },
  {
    "name": "Paese",
    "latitude": "45.6667",
    "longitude": "12.1500"
  },
  {
    "name": "Agropoli",
    "latitude": "40.3583",
    "longitude": "14.9833"
  },
  {
    "name": "Palestrina",
    "latitude": "41.8333",
    "longitude": "12.9000"
  },
  {
    "name": "Piazza Armerina",
    "latitude": "37.3833",
    "longitude": "14.3667"
  },
  {
    "name": "Borgomanero",
    "latitude": "45.7000",
    "longitude": "8.4667"
  },
  {
    "name": "Isernia",
    "latitude": "41.6028",
    "longitude": "14.2397"
  },
  {
    "name": "Colle di Val d’Elsa",
    "latitude": "43.4225",
    "longitude": "11.1267"
  },
  {
    "name": "Sondrio",
    "latitude": "46.1697",
    "longitude": "9.8700"
  },
  {
    "name": "Savigliano",
    "latitude": "44.6500",
    "longitude": "7.6333"
  },
  {
    "name": "Argenta",
    "latitude": "44.6131",
    "longitude": "11.8364"
  },
  {
    "name": "Martellago",
    "latitude": "45.5467",
    "longitude": "12.1575"
  },
  {
    "name": "Senago",
    "latitude": "45.5833",
    "longitude": "9.1333"
  },
  {
    "name": "Palo del Colle",
    "latitude": "41.0500",
    "longitude": "16.7000"
  },
  {
    "name": "Casal di Principe",
    "latitude": "41.0108",
    "longitude": "14.1319"
  },
  {
    "name": "Corciano",
    "latitude": "43.1290",
    "longitude": "12.2877"
  },
  {
    "name": "Anagni",
    "latitude": "41.7500",
    "longitude": "13.1500"
  },
  {
    "name": "San Bonifacio",
    "latitude": "45.4000",
    "longitude": "11.2833"
  },
  {
    "name": "Colleferro",
    "latitude": "41.7287",
    "longitude": "13.0031"
  },
  {
    "name": "Pergine Valsugana",
    "latitude": "46.0667",
    "longitude": "11.2333"
  },
  {
    "name": "Follonica",
    "latitude": "42.9189",
    "longitude": "10.7614"
  },
  {
    "name": "Sessa Aurunca",
    "latitude": "41.2333",
    "longitude": "13.9333"
  },
  {
    "name": "Rosolini",
    "latitude": "36.8167",
    "longitude": "14.9500"
  },
  {
    "name": "Recanati",
    "latitude": "43.3986",
    "longitude": "13.5525"
  },
  {
    "name": "Suzzara",
    "latitude": "44.9927",
    "longitude": "10.7494"
  },
  {
    "name": "Monsummano",
    "latitude": "43.8667",
    "longitude": "10.8167"
  },
  {
    "name": "Ferentino",
    "latitude": "41.6833",
    "longitude": "13.2500"
  },
  {
    "name": "Sestu",
    "latitude": "39.2994",
    "longitude": "9.0918"
  },
  {
    "name": "Trezzano sul Naviglio",
    "latitude": "45.4333",
    "longitude": "9.0667"
  },
  {
    "name": "Vico Equense",
    "latitude": "40.6667",
    "longitude": "14.4333"
  },
  {
    "name": "Castel San Pietro Terme",
    "latitude": "44.3978",
    "longitude": "11.5894"
  },
  {
    "name": "Feltre",
    "latitude": "46.0167",
    "longitude": "11.9000"
  },
  {
    "name": "Pontassieve",
    "latitude": "43.7750",
    "longitude": "11.4375"
  },
  {
    "name": "Acquaviva delle Fonti",
    "latitude": "40.9000",
    "longitude": "16.8500"
  },
  {
    "name": "Trecate",
    "latitude": "45.4333",
    "longitude": "8.7333"
  },
  {
    "name": "Gallipoli",
    "latitude": "40.0556",
    "longitude": "17.9917"
  },
  {
    "name": "Gaeta",
    "latitude": "41.2167",
    "longitude": "13.5667"
  },
  {
    "name": "Montecatini Terme",
    "latitude": "43.8828",
    "longitude": "10.7711"
  },
  {
    "name": "Sabaudia",
    "latitude": "41.2998",
    "longitude": "13.0248"
  },
  {
    "name": "Cornaredo",
    "latitude": "45.5000",
    "longitude": "9.0333"
  },
  {
    "name": "Gorgonzola",
    "latitude": "45.5333",
    "longitude": "9.4000"
  },
  {
    "name": "Romano di Lombardia",
    "latitude": "45.5167",
    "longitude": "9.7500"
  },
  {
    "name": "Oderzo",
    "latitude": "45.7808",
    "longitude": "12.4928"
  },
  {
    "name": "Grottaferrata",
    "latitude": "41.8000",
    "longitude": "12.6667"
  },
  {
    "name": "Acri",
    "latitude": "39.5000",
    "longitude": "16.3833"
  },
  {
    "name": "Veroli",
    "latitude": "41.6833",
    "longitude": "13.4167"
  },
  {
    "name": "Giovinazzo",
    "latitude": "41.1833",
    "longitude": "16.6667"
  },
  {
    "name": "Lastra a Signa",
    "latitude": "43.7667",
    "longitude": "11.1000"
  },
  {
    "name": "Orvieto",
    "latitude": "42.7167",
    "longitude": "12.1000"
  },
  {
    "name": "Montalto Uffugo",
    "latitude": "39.4000",
    "longitude": "16.1500"
  },
  {
    "name": "Rivalta di Torino",
    "latitude": "45.0333",
    "longitude": "7.5333"
  },
  {
    "name": "San Salvo",
    "latitude": "42.0455",
    "longitude": "14.7315"
  },
  {
    "name": "Cittadella",
    "latitude": "45.6486",
    "longitude": "11.7836"
  },
  {
    "name": "Bussolengo",
    "latitude": "45.4667",
    "longitude": "10.8500"
  },
  {
    "name": "Ischia",
    "latitude": "40.7500",
    "longitude": "13.9500"
  },
  {
    "name": "Abano Terme",
    "latitude": "45.3619",
    "longitude": "11.7924"
  },
  {
    "name": "Gioia Tauro",
    "latitude": "38.4333",
    "longitude": "15.9000"
  },
  {
    "name": "Casarano",
    "latitude": "40.0167",
    "longitude": "18.1667"
  },
  {
    "name": "Villabate",
    "latitude": "38.0833",
    "longitude": "13.4500"
  },
  {
    "name": "Viadana",
    "latitude": "44.9267",
    "longitude": "10.5200"
  },
  {
    "name": "Pallazzolo sull’Oglio",
    "latitude": "45.6000",
    "longitude": "9.8833"
  },
  {
    "name": "Cormano",
    "latitude": "45.5500",
    "longitude": "9.1667"
  },
  {
    "name": "Novate Milanese",
    "latitude": "45.5333",
    "longitude": "9.1333"
  },
  {
    "name": "Sacile",
    "latitude": "45.9541",
    "longitude": "12.5027"
  },
  {
    "name": "Piove di Sacco",
    "latitude": "45.2977",
    "longitude": "12.0368"
  },
  {
    "name": "Trentola",
    "latitude": "40.9762",
    "longitude": "14.1773"
  },
  {
    "name": "Ceglie Messapico",
    "latitude": "40.6500",
    "longitude": "17.5167"
  },
  {
    "name": "Minturno",
    "latitude": "41.2667",
    "longitude": "13.7500"
  },
  {
    "name": "Casamassima",
    "latitude": "40.9500",
    "longitude": "16.9167"
  },
  {
    "name": "Monserrato",
    "latitude": "39.2568",
    "longitude": "9.1387"
  },
  {
    "name": "Salsomaggiore Terme",
    "latitude": "44.8167",
    "longitude": "9.9833"
  },
  {
    "name": "Sant’Antonio Abate",
    "latitude": "40.7333",
    "longitude": "14.5500"
  },
  {
    "name": "Acqui Terme",
    "latitude": "44.6761",
    "longitude": "8.4686"
  },
  {
    "name": "Pescia",
    "latitude": "43.9017",
    "longitude": "10.6898"
  },
  {
    "name": "Castellana Grotte",
    "latitude": "40.8838",
    "longitude": "17.1679"
  },
  {
    "name": "Pozzallo",
    "latitude": "36.7303",
    "longitude": "14.8467"
  },
  {
    "name": "Adria",
    "latitude": "45.0500",
    "longitude": "12.0500"
  },
  {
    "name": "Anguillara Sabazia",
    "latitude": "42.0883",
    "longitude": "12.2775"
  },
  {
    "name": "Tolentino",
    "latitude": "43.2086",
    "longitude": "13.2841"
  },
  {
    "name": "Spoltore",
    "latitude": "42.4550",
    "longitude": "14.1399"
  },
  {
    "name": "Arese",
    "latitude": "45.5531",
    "longitude": "9.0775"
  },
  {
    "name": "Narni",
    "latitude": "42.5167",
    "longitude": "12.5167"
  },
  {
    "name": "Casalgrande",
    "latitude": "44.5898",
    "longitude": "10.7394"
  },
  {
    "name": "Rovato",
    "latitude": "45.5642",
    "longitude": "9.9997"
  },
  {
    "name": "Bracciano",
    "latitude": "42.1000",
    "longitude": "12.1833"
  },
  {
    "name": "Noci",
    "latitude": "40.8000",
    "longitude": "17.1333"
  },
  {
    "name": "San Vito dei Normanni",
    "latitude": "40.6556",
    "longitude": "17.7036"
  },
  {
    "name": "Cassano d’Adda",
    "latitude": "45.5333",
    "longitude": "9.5167"
  },
  {
    "name": "San Mauro Torinese",
    "latitude": "45.1039",
    "longitude": "7.7536"
  },
  {
    "name": "Bronte",
    "latitude": "37.8000",
    "longitude": "14.8333"
  },
  {
    "name": "Chiari",
    "latitude": "45.5197",
    "longitude": "9.8833"
  },
  {
    "name": "Zola Predosa",
    "latitude": "44.4883",
    "longitude": "11.2181"
  },
  {
    "name": "Santa Marinella",
    "latitude": "42.0333",
    "longitude": "11.8500"
  },
  {
    "name": "Signa",
    "latitude": "43.7833",
    "longitude": "11.1000"
  },
  {
    "name": "Tradate",
    "latitude": "45.7000",
    "longitude": "8.9167"
  },
  {
    "name": "Ariccia",
    "latitude": "41.7167",
    "longitude": "12.6667"
  },
  {
    "name": "Scorzè",
    "latitude": "45.5719",
    "longitude": "12.1089"
  },
  {
    "name": "Ribera",
    "latitude": "37.4994",
    "longitude": "13.2650"
  },
  {
    "name": "Valenza",
    "latitude": "45.0140",
    "longitude": "8.6458"
  },
  {
    "name": "Cusano Milanino",
    "latitude": "45.5500",
    "longitude": "9.1833"
  },
  {
    "name": "Montemurlo",
    "latitude": "43.9278",
    "longitude": "11.0400"
  },
  {
    "name": "Ghedi",
    "latitude": "45.4020",
    "longitude": "10.2803"
  },
  {
    "name": "Marsciano",
    "latitude": "42.9167",
    "longitude": "12.3333"
  },
  {
    "name": "Ciriè",
    "latitude": "45.2333",
    "longitude": "7.6000"
  },
  {
    "name": "Palmi",
    "latitude": "38.3667",
    "longitude": "15.8500"
  },
  {
    "name": "Castelfidardo",
    "latitude": "43.4642",
    "longitude": "13.5461"
  },
  {
    "name": "Rutigliano",
    "latitude": "40.9333",
    "longitude": "16.9000"
  },
  {
    "name": "Terzigno",
    "latitude": "40.8000",
    "longitude": "14.5000"
  },
  {
    "name": "Aci Castello",
    "latitude": "37.5500",
    "longitude": "15.1500"
  },
  {
    "name": "Melzo",
    "latitude": "45.5000",
    "longitude": "9.4167"
  },
  {
    "name": "Budrio",
    "latitude": "44.5374",
    "longitude": "11.5344"
  },
  {
    "name": "Borgo San Lorenzo",
    "latitude": "43.9555",
    "longitude": "11.3856"
  },
  {
    "name": "Castel Maggiore",
    "latitude": "44.5778",
    "longitude": "11.3617"
  },
  {
    "name": "Sestri Levante",
    "latitude": "44.2733",
    "longitude": "9.3932"
  },
  {
    "name": "Piossasco",
    "latitude": "44.9833",
    "longitude": "7.4667"
  },
  {
    "name": "Corbetta",
    "latitude": "45.4667",
    "longitude": "8.9167"
  },
  {
    "name": "Capua",
    "latitude": "41.1056",
    "longitude": "14.2139"
  },
  {
    "name": "Cassano al Ionio",
    "latitude": "39.7839",
    "longitude": "16.3189"
  },
  {
    "name": "Domodossola",
    "latitude": "46.1161",
    "longitude": "8.2911"
  },
  {
    "name": "Siderno Marina",
    "latitude": "38.2667",
    "longitude": "16.3000"
  },
  {
    "name": "Palma Campania",
    "latitude": "40.8667",
    "longitude": "14.5500"
  },
  {
    "name": "Cordenons",
    "latitude": "45.9833",
    "longitude": "12.7000"
  },
  {
    "name": "Melegnano",
    "latitude": "45.3667",
    "longitude": "9.3167"
  },
  {
    "name": "Aci Sant’Antonio",
    "latitude": "37.6059",
    "longitude": "15.1260"
  },
  {
    "name": "Valguarnera Caropepe",
    "latitude": "37.5000",
    "longitude": "14.3833"
  },
  {
    "name": "Polignano a Mare",
    "latitude": "40.9961",
    "longitude": "17.2203"
  },
  {
    "name": "Cercola",
    "latitude": "40.8667",
    "longitude": "14.3500"
  },
  {
    "name": "Laives",
    "latitude": "46.4276",
    "longitude": "11.3405"
  },
  {
    "name": "Carate Brianza",
    "latitude": "45.6833",
    "longitude": "9.2333"
  },
  {
    "name": "Valenzano",
    "latitude": "41.0500",
    "longitude": "16.8833"
  },
  {
    "name": "Grumo Nevano",
    "latitude": "40.9333",
    "longitude": "14.2667"
  },
  {
    "name": "Zagarolo",
    "latitude": "41.8333",
    "longitude": "12.8333"
  },
  {
    "name": "Somma Lombardo",
    "latitude": "45.6833",
    "longitude": "8.7000"
  },
  {
    "name": "Arcore",
    "latitude": "45.6333",
    "longitude": "9.3167"
  },
  {
    "name": "Calenzano",
    "latitude": "43.8567",
    "longitude": "11.1636"
  },
  {
    "name": "Albino",
    "latitude": "45.7606",
    "longitude": "9.7969"
  },
  {
    "name": "Villorba",
    "latitude": "45.7333",
    "longitude": "12.2333"
  },
  {
    "name": "Melfi",
    "latitude": "40.9964",
    "longitude": "15.6558"
  },
  {
    "name": "Beinasco",
    "latitude": "45.0228",
    "longitude": "7.5878"
  },
  {
    "name": "Forio",
    "latitude": "40.7333",
    "longitude": "13.8500"
  },
  {
    "name": "Isola Capo Rizzuto",
    "latitude": "38.9667",
    "longitude": "17.1000"
  },
  {
    "name": "Agliana",
    "latitude": "43.9000",
    "longitude": "11.0000"
  },
  {
    "name": "Santa Maria di Sala",
    "latitude": "45.5089",
    "longitude": "12.0363"
  },
  {
    "name": "Savignano sul Rubicone",
    "latitude": "44.0881",
    "longitude": "12.3933"
  },
  {
    "name": "Carlentini",
    "latitude": "37.2833",
    "longitude": "15.0167"
  },
  {
    "name": "Arco",
    "latitude": "45.9167",
    "longitude": "10.8833"
  },
  {
    "name": "Sona",
    "latitude": "45.4333",
    "longitude": "10.8333"
  },
  {
    "name": "Policoro",
    "latitude": "40.2000",
    "longitude": "16.6667"
  },
  {
    "name": "Orta Nova",
    "latitude": "41.3308",
    "longitude": "15.7114"
  },
  {
    "name": "Pisticci",
    "latitude": "40.3833",
    "longitude": "16.5500"
  },
  {
    "name": "Maranello",
    "latitude": "44.5256",
    "longitude": "10.8664"
  },
  {
    "name": "Monselice",
    "latitude": "45.2333",
    "longitude": "11.7500"
  },
  {
    "name": "Sìnnai",
    "latitude": "39.3026",
    "longitude": "9.2031"
  },
  {
    "name": "Tricase",
    "latitude": "39.9333",
    "longitude": "18.3667"
  },
  {
    "name": "Pianoro",
    "latitude": "44.3833",
    "longitude": "11.3333"
  },
  {
    "name": "Marcon",
    "latitude": "45.5543",
    "longitude": "12.2994"
  },
  {
    "name": "Pavullo nel Frignano",
    "latitude": "44.3327",
    "longitude": "10.8331"
  },
  {
    "name": "Bareggio",
    "latitude": "45.4667",
    "longitude": "8.9833"
  },
  {
    "name": "Castelfiorentino",
    "latitude": "43.6108",
    "longitude": "10.9700"
  },
  {
    "name": "Pescantina",
    "latitude": "45.4833",
    "longitude": "10.8667"
  },
  {
    "name": "Rocca di Papa",
    "latitude": "41.7667",
    "longitude": "12.7167"
  },
  {
    "name": "Cattolica",
    "latitude": "43.9584",
    "longitude": "12.7386"
  },
  {
    "name": "Nerviano",
    "latitude": "45.5500",
    "longitude": "8.9833"
  },
  {
    "name": "San Casciano in Val di Pesa",
    "latitude": "43.6569",
    "longitude": "11.1858"
  },
  {
    "name": "Campagna",
    "latitude": "40.6666",
    "longitude": "15.1064"
  },
  {
    "name": "Sant’Elpidio a Mare",
    "latitude": "43.2295",
    "longitude": "13.6861"
  },
  {
    "name": "Carovigno",
    "latitude": "40.7072",
    "longitude": "17.6594"
  },
  {
    "name": "Fiorano Modenese",
    "latitude": "44.5392",
    "longitude": "10.8117"
  },
  {
    "name": "Negrar",
    "latitude": "45.5333",
    "longitude": "10.9333"
  },
  {
    "name": "Torre Maggiore",
    "latitude": "41.6833",
    "longitude": "15.2833"
  },
  {
    "name": "Castellaneta",
    "latitude": "40.6333",
    "longitude": "16.9333"
  },
  {
    "name": "San Giovanni in Fiore",
    "latitude": "39.2642",
    "longitude": "16.7003"
  },
  {
    "name": "Baronissi",
    "latitude": "40.7500",
    "longitude": "14.7800"
  },
  {
    "name": "Vimodrone",
    "latitude": "45.5139",
    "longitude": "9.2844"
  },
  {
    "name": "Adelfia",
    "latitude": "41.0000",
    "longitude": "16.8667"
  },
  {
    "name": "Saluzzo",
    "latitude": "44.6453",
    "longitude": "7.4906"
  },
  {
    "name": "Preganziol",
    "latitude": "45.6000",
    "longitude": "12.2333"
  },
  {
    "name": "Bovisio Masciago",
    "latitude": "45.6167",
    "longitude": "9.1500"
  },
  {
    "name": "Scordia",
    "latitude": "37.3000",
    "longitude": "14.8500"
  },
  {
    "name": "San Giovanni Valdarno",
    "latitude": "43.5644",
    "longitude": "11.5328"
  },
  {
    "name": "Alpignano",
    "latitude": "45.1000",
    "longitude": "7.5167"
  },
  {
    "name": "Malnate",
    "latitude": "45.8000",
    "longitude": "8.8833"
  },
  {
    "name": "Vedelago",
    "latitude": "45.6833",
    "longitude": "12.0167"
  },
  {
    "name": "Bagnacavallo",
    "latitude": "44.4169",
    "longitude": "11.9761"
  },
  {
    "name": "Medicina",
    "latitude": "44.4833",
    "longitude": "11.6333"
  },
  {
    "name": "Giaveno",
    "latitude": "45.0333",
    "longitude": "7.3500"
  },
  {
    "name": "Porto Empedocle",
    "latitude": "37.2944",
    "longitude": "13.5272"
  },
  {
    "name": "Colle Salvetti",
    "latitude": "43.6000",
    "longitude": "10.4833"
  },
  {
    "name": "Gussago",
    "latitude": "45.6000",
    "longitude": "10.1500"
  },
  {
    "name": "Palagonia",
    "latitude": "37.3333",
    "longitude": "14.7500"
  },
  {
    "name": "Monesiglio",
    "latitude": "44.4667",
    "longitude": "8.1167"
  },
  {
    "name": "Todi",
    "latitude": "42.7833",
    "longitude": "12.4167"
  },
  {
    "name": "Brunico",
    "latitude": "46.7994",
    "longitude": "11.9343"
  },
  {
    "name": "Reggello",
    "latitude": "43.6833",
    "longitude": "11.5333"
  },
  {
    "name": "Umbertide",
    "latitude": "43.3056",
    "longitude": "12.3366"
  },
  {
    "name": "Cerea",
    "latitude": "45.1894",
    "longitude": "11.2166"
  },
  {
    "name": "Lonigo",
    "latitude": "45.3833",
    "longitude": "11.3833"
  },
  {
    "name": "Rubano",
    "latitude": "45.4333",
    "longitude": "11.7833"
  },
  {
    "name": "Sorrento",
    "latitude": "40.6278",
    "longitude": "14.3736"
  },
  {
    "name": "Leinì",
    "latitude": "45.1836",
    "longitude": "7.7153"
  },
  {
    "name": "Brusciano",
    "latitude": "40.9224",
    "longitude": "14.4239"
  },
  {
    "name": "Este",
    "latitude": "45.2333",
    "longitude": "11.6667"
  },
  {
    "name": "Ispica",
    "latitude": "36.7853",
    "longitude": "14.9069"
  },
  {
    "name": "Copparo",
    "latitude": "44.9000",
    "longitude": "11.8333"
  },
  {
    "name": "Tarquinia",
    "latitude": "42.2492",
    "longitude": "11.7561"
  },
  {
    "name": "Civita Castellana",
    "latitude": "42.2961",
    "longitude": "12.4100"
  },
  {
    "name": "Caravaggio",
    "latitude": "45.4978",
    "longitude": "9.6431"
  },
  {
    "name": "Saviano",
    "latitude": "40.9167",
    "longitude": "14.5167"
  },
  {
    "name": "Cadoneghe",
    "latitude": "45.4500",
    "longitude": "11.9333"
  },
  {
    "name": "Grottammare",
    "latitude": "42.9891",
    "longitude": "13.8681"
  },
  {
    "name": "Codroipo",
    "latitude": "45.9614",
    "longitude": "12.9774"
  },
  {
    "name": "Frattaminore",
    "latitude": "40.9556",
    "longitude": "14.2708"
  },
  {
    "name": "Palagiano",
    "latitude": "40.5833",
    "longitude": "17.0500"
  },
  {
    "name": "Bovolone",
    "latitude": "45.2500",
    "longitude": "11.1333"
  },
  {
    "name": "Sava",
    "latitude": "40.4003",
    "longitude": "17.5667"
  },
  {
    "name": "Valmontone",
    "latitude": "41.7833",
    "longitude": "12.9167"
  },
  {
    "name": "Porto San Giorgio",
    "latitude": "43.1848",
    "longitude": "13.7955"
  },
  {
    "name": "Certaldo",
    "latitude": "43.5478",
    "longitude": "11.0411"
  },
  {
    "name": "Samarate",
    "latitude": "45.6167",
    "longitude": "8.7833"
  },
  {
    "name": "Noale",
    "latitude": "45.5501",
    "longitude": "12.0709"
  },
  {
    "name": "Martinsicuro",
    "latitude": "42.8851",
    "longitude": "13.9160"
  },
  {
    "name": "Nonantola",
    "latitude": "44.6777",
    "longitude": "11.0430"
  },
  {
    "name": "Codogno",
    "latitude": "45.1600",
    "longitude": "9.7050"
  },
  {
    "name": "Lentate sul Seveso",
    "latitude": "45.6833",
    "longitude": "9.1167"
  },
  {
    "name": "Sansepolcro",
    "latitude": "43.5756",
    "longitude": "12.1439"
  },
  {
    "name": "Mottola",
    "latitude": "40.6333",
    "longitude": "17.0333"
  },
  {
    "name": "Potenza Picena",
    "latitude": "43.3663",
    "longitude": "13.6203"
  },
  {
    "name": "Azzano Decimo",
    "latitude": "45.8833",
    "longitude": "12.7167"
  },
  {
    "name": "Paola",
    "latitude": "39.3667",
    "longitude": "16.0333"
  },
  {
    "name": "Silvi Paese",
    "latitude": "42.5500",
    "longitude": "14.1167"
  },
  {
    "name": "Fiano Romano",
    "latitude": "42.1667",
    "longitude": "12.6000"
  },
  {
    "name": "Galliate",
    "latitude": "45.4833",
    "longitude": "8.7000"
  },
  {
    "name": "Capurso",
    "latitude": "41.0500",
    "longitude": "16.9167"
  },
  {
    "name": "Concorezzo",
    "latitude": "45.5897",
    "longitude": "9.3359"
  },
  {
    "name": "Molinella",
    "latitude": "44.6167",
    "longitude": "11.6667"
  },
  {
    "name": "Finale Emilia",
    "latitude": "44.8319",
    "longitude": "11.2957"
  },
  {
    "name": "Besana in Brianza",
    "latitude": "45.7000",
    "longitude": "9.2833"
  },
  {
    "name": "Altopascio",
    "latitude": "43.8167",
    "longitude": "10.6747"
  },
  {
    "name": "San Cesareo",
    "latitude": "41.8167",
    "longitude": "12.8000"
  },
  {
    "name": "Galatone",
    "latitude": "40.1500",
    "longitude": "18.0667"
  },
  {
    "name": "Agrate Brianza",
    "latitude": "45.5783",
    "longitude": "9.3522"
  },
  {
    "name": "Ponsacco",
    "latitude": "43.6167",
    "longitude": "10.6333"
  },
  {
    "name": "Taurianova",
    "latitude": "38.3500",
    "longitude": "16.0167"
  },
  {
    "name": "Carugate",
    "latitude": "45.5500",
    "longitude": "9.3333"
  },
  {
    "name": "San Martino Buon Albergo",
    "latitude": "45.4167",
    "longitude": "11.1000"
  },
  {
    "name": "Castiglione del Lago",
    "latitude": "43.1271",
    "longitude": "12.0452"
  },
  {
    "name": "Volpiano",
    "latitude": "45.2000",
    "longitude": "7.7833"
  },
  {
    "name": "Casalmaggiore",
    "latitude": "44.9858",
    "longitude": "10.4147"
  },
  {
    "name": "Valeggio sul Mincio",
    "latitude": "45.3500",
    "longitude": "10.7333"
  },
  {
    "name": "Castenaso",
    "latitude": "44.5097",
    "longitude": "11.4706"
  },
  {
    "name": "Mortara",
    "latitude": "45.2500",
    "longitude": "8.7500"
  },
  {
    "name": "Corridonia",
    "latitude": "43.2482",
    "longitude": "13.5075"
  },
  {
    "name": "Castellarano",
    "latitude": "44.5139",
    "longitude": "10.7339"
  },
  {
    "name": "Pianezza",
    "latitude": "45.1042",
    "longitude": "7.5500"
  },
  {
    "name": "Soliera",
    "latitude": "44.7381",
    "longitude": "10.9245"
  },
  {
    "name": "Omegna",
    "latitude": "45.8781",
    "longitude": "8.4069"
  },
  {
    "name": "Casalpusterlengo",
    "latitude": "45.1778",
    "longitude": "9.6500"
  },
  {
    "name": "Fiorenzuola d’Arda",
    "latitude": "44.9333",
    "longitude": "9.9000"
  },
  {
    "name": "Sannicandro Garganico",
    "latitude": "41.8333",
    "longitude": "15.5667"
  },
  {
    "name": "Cerro Maggiore",
    "latitude": "45.6000",
    "longitude": "8.9500"
  },
  {
    "name": "Castellammare del Golfo",
    "latitude": "38.0192",
    "longitude": "12.8858"
  },
  {
    "name": "Laterza",
    "latitude": "40.6333",
    "longitude": "16.8000"
  },
  {
    "name": "Surbo",
    "latitude": "40.4000",
    "longitude": "18.1333"
  },
  {
    "name": "San Giorgio Ionico",
    "latitude": "40.4500",
    "longitude": "17.3667"
  },
  {
    "name": "San Vito al Tagliamento",
    "latitude": "45.9153",
    "longitude": "12.8556"
  },
  {
    "name": "Zevio",
    "latitude": "45.3728",
    "longitude": "11.1303"
  },
  {
    "name": "Castelnuovo Rangone",
    "latitude": "44.5519",
    "longitude": "10.9358"
  },
  {
    "name": "Città Sant’Angelo",
    "latitude": "42.5167",
    "longitude": "14.0500"
  },
  {
    "name": "Guastalla",
    "latitude": "44.9214",
    "longitude": "10.6542"
  },
  {
    "name": "Dolo",
    "latitude": "45.4249",
    "longitude": "12.0758"
  },
  {
    "name": "Gualdo Tadino",
    "latitude": "43.2333",
    "longitude": "12.7833"
  },
  {
    "name": "Pineto",
    "latitude": "42.6167",
    "longitude": "14.0667"
  },
  {
    "name": "Pontinia",
    "latitude": "41.4083",
    "longitude": "13.0443"
  },
  {
    "name": "Sasso Marconi",
    "latitude": "44.4000",
    "longitude": "11.2500"
  },
  {
    "name": "Merate",
    "latitude": "45.7000",
    "longitude": "9.4333"
  },
  {
    "name": "Malo",
    "latitude": "45.6582",
    "longitude": "11.4047"
  },
  {
    "name": "Rubiera",
    "latitude": "44.6500",
    "longitude": "10.7833"
  },
  {
    "name": "Sorso",
    "latitude": "40.7983",
    "longitude": "8.5772"
  },
  {
    "name": "Magione",
    "latitude": "43.1500",
    "longitude": "12.2000"
  },
  {
    "name": "Sommacampagna",
    "latitude": "45.4000",
    "longitude": "10.8500"
  },
  {
    "name": "Cirò Marina",
    "latitude": "39.3667",
    "longitude": "17.1167"
  },
  {
    "name": "Rosarno",
    "latitude": "38.4850",
    "longitude": "15.9797"
  },
  {
    "name": "Cassano delle Murge",
    "latitude": "40.8833",
    "longitude": "16.7667"
  },
  {
    "name": "Orbetello",
    "latitude": "42.4394",
    "longitude": "11.2125"
  },
  {
    "name": "Chiaravalle",
    "latitude": "43.5997",
    "longitude": "13.3257"
  },
  {
    "name": "Ospitaletto",
    "latitude": "45.5553",
    "longitude": "10.0733"
  },
  {
    "name": "Campodarsego",
    "latitude": "45.5000",
    "longitude": "11.9167"
  },
  {
    "name": "Carmignano",
    "latitude": "43.8103",
    "longitude": "11.0149"
  },
  {
    "name": "Vinci",
    "latitude": "43.7833",
    "longitude": "10.9167"
  },
  {
    "name": "Trinitapoli",
    "latitude": "41.3500",
    "longitude": "16.1000"
  },
  {
    "name": "Collecchio",
    "latitude": "44.7527",
    "longitude": "10.2157"
  },
  {
    "name": "Cossato",
    "latitude": "45.5667",
    "longitude": "8.1667"
  },
  {
    "name": "Santa Croce sull’ Arno",
    "latitude": "43.7202",
    "longitude": "10.7727"
  },
  {
    "name": "Riposto",
    "latitude": "37.7333",
    "longitude": "15.2000"
  },
  {
    "name": "Impruneta",
    "latitude": "43.6854",
    "longitude": "11.2544"
  },
  {
    "name": "Pedara",
    "latitude": "37.6167",
    "longitude": "15.0667"
  },
  {
    "name": "Sant’Arpino",
    "latitude": "40.9575",
    "longitude": "14.2492"
  },
  {
    "name": "Roncade",
    "latitude": "45.6246",
    "longitude": "12.3766"
  },
  {
    "name": "Urbino",
    "latitude": "43.7252",
    "longitude": "12.6372"
  },
  {
    "name": "Trepuzzi",
    "latitude": "40.4000",
    "longitude": "18.0667"
  },
  {
    "name": "Rosà",
    "latitude": "45.7167",
    "longitude": "11.7667"
  },
  {
    "name": "Luino",
    "latitude": "46.0000",
    "longitude": "8.7500"
  },
  {
    "name": "Latiano",
    "latitude": "40.5333",
    "longitude": "17.7167"
  },
  {
    "name": "Priverno",
    "latitude": "41.4667",
    "longitude": "13.1833"
  },
  {
    "name": "Castellanza",
    "latitude": "45.6167",
    "longitude": "8.9000"
  },
  {
    "name": "Leno",
    "latitude": "45.3703",
    "longitude": "10.2167"
  },
  {
    "name": "Mascali",
    "latitude": "37.7578",
    "longitude": "15.1958"
  },
  {
    "name": "Cefalù",
    "latitude": "38.0395",
    "longitude": "14.0221"
  },
  {
    "name": "Taglio",
    "latitude": "45.0167",
    "longitude": "12.2167"
  },
  {
    "name": "Massalubrense",
    "latitude": "40.6167",
    "longitude": "14.3500"
  },
  {
    "name": "Mondolfo",
    "latitude": "43.7517",
    "longitude": "13.0956"
  },
  {
    "name": "Montelupo Fiorentino",
    "latitude": "43.7333",
    "longitude": "11.0167"
  },
  {
    "name": "Bondeno",
    "latitude": "44.8894",
    "longitude": "11.4154"
  },
  {
    "name": "Maglie",
    "latitude": "40.1167",
    "longitude": "18.3000"
  },
  {
    "name": "Locorotondo",
    "latitude": "40.7500",
    "longitude": "17.3167"
  },
  {
    "name": "Rescaldina",
    "latitude": "45.6167",
    "longitude": "8.9500"
  },
  {
    "name": "Solaro",
    "latitude": "45.6150",
    "longitude": "9.0839"
  },
  {
    "name": "Fiesole",
    "latitude": "43.8000",
    "longitude": "11.3000"
  },
  {
    "name": "Leverano",
    "latitude": "40.2833",
    "longitude": "18.0833"
  },
  {
    "name": "Oleggio",
    "latitude": "45.6000",
    "longitude": "8.6333"
  },
  {
    "name": "Casandrino",
    "latitude": "40.9333",
    "longitude": "14.2500"
  },
  {
    "name": "Artena",
    "latitude": "41.7333",
    "longitude": "12.9167"
  },
  {
    "name": "Tempio Pausania",
    "latitude": "40.9015",
    "longitude": "9.1044"
  },
  {
    "name": "Marostica",
    "latitude": "45.7456",
    "longitude": "11.6553"
  },
  {
    "name": "Squinzano",
    "latitude": "40.4333",
    "longitude": "18.0500"
  },
  {
    "name": "Vetralla",
    "latitude": "42.3106",
    "longitude": "12.0792"
  },
  {
    "name": "Villacidro",
    "latitude": "39.4578",
    "longitude": "8.7424"
  },
  {
    "name": "Santa Maria a Vico",
    "latitude": "41.0333",
    "longitude": "14.4833"
  },
  {
    "name": "Taggia",
    "latitude": "43.8439",
    "longitude": "7.8509"
  },
  {
    "name": "Montepulciano",
    "latitude": "43.1000",
    "longitude": "11.7833"
  },
  {
    "name": "Amantea",
    "latitude": "39.1333",
    "longitude": "16.0667"
  },
  {
    "name": "Villasanta",
    "latitude": "45.6053",
    "longitude": "9.3033"
  },
  {
    "name": "Fisciano",
    "latitude": "40.7667",
    "longitude": "14.8000"
  },
  {
    "name": "Arona",
    "latitude": "45.7569",
    "longitude": "8.5600"
  },
  {
    "name": "Caselle Torinese",
    "latitude": "45.1833",
    "longitude": "7.6500"
  },
  {
    "name": "Veglie",
    "latitude": "40.3333",
    "longitude": "17.9667"
  },
  {
    "name": "Vieste",
    "latitude": "41.8833",
    "longitude": "16.1667"
  },
  {
    "name": "Travagliato",
    "latitude": "45.5240",
    "longitude": "10.0797"
  },
  {
    "name": "Monteroni di Lecce",
    "latitude": "40.3333",
    "longitude": "18.1000"
  },
  {
    "name": "Fara in Sabina",
    "latitude": "42.2167",
    "longitude": "12.7333"
  },
  {
    "name": "Cervignano del Friuli",
    "latitude": "45.8231",
    "longitude": "13.3350"
  },
  {
    "name": "Calolziocorte",
    "latitude": "45.8000",
    "longitude": "9.4333"
  },
  {
    "name": "Opera",
    "latitude": "45.3833",
    "longitude": "9.2167"
  },
  {
    "name": "Busto Garolfo",
    "latitude": "45.5478",
    "longitude": "8.8867"
  },
  {
    "name": "Cassina de’ Pecchi",
    "latitude": "45.5167",
    "longitude": "9.3667"
  },
  {
    "name": "San Ferdinando di Puglia",
    "latitude": "41.3000",
    "longitude": "16.0667"
  },
  {
    "name": "Statte",
    "latitude": "40.5667",
    "longitude": "17.2000"
  },
  {
    "name": "Dueville",
    "latitude": "45.6333",
    "longitude": "11.5500"
  },
  {
    "name": "Cavarzere",
    "latitude": "45.1370",
    "longitude": "12.0817"
  },
  {
    "name": "Castel San Giorgio",
    "latitude": "40.7833",
    "longitude": "14.7000"
  },
  {
    "name": "Castel San Giovanni",
    "latitude": "45.0591",
    "longitude": "9.4342"
  },
  {
    "name": "Arzachena",
    "latitude": "41.0801",
    "longitude": "9.3880"
  },
  {
    "name": "Novellara",
    "latitude": "44.8500",
    "longitude": "10.7333"
  },
  {
    "name": "Crispiano",
    "latitude": "40.6000",
    "longitude": "17.2333"
  },
  {
    "name": "Villa San Giovanni",
    "latitude": "38.2167",
    "longitude": "15.6333"
  },
  {
    "name": "Alzano Lombardo",
    "latitude": "45.7317",
    "longitude": "9.7283"
  },
  {
    "name": "Nicosia",
    "latitude": "37.7500",
    "longitude": "14.4000"
  },
  {
    "name": "San Marco in Lamis",
    "latitude": "41.7117",
    "longitude": "15.6350"
  },
  {
    "name": "Lanuvio",
    "latitude": "41.6833",
    "longitude": "12.7000"
  },
  {
    "name": "Rezzato",
    "latitude": "45.5150",
    "longitude": "10.3175"
  },
  {
    "name": "San Pietro Vernotico",
    "latitude": "40.4833",
    "longitude": "18.0500"
  },
  {
    "name": "Melilli",
    "latitude": "37.1833",
    "longitude": "15.1167"
  },
  {
    "name": "Montesarchio",
    "latitude": "41.0667",
    "longitude": "14.6333"
  },
  {
    "name": "Crevalcore",
    "latitude": "44.7167",
    "longitude": "11.1500"
  },
  {
    "name": "Montefiascone",
    "latitude": "42.5333",
    "longitude": "12.0333"
  },
  {
    "name": "Montespertoli",
    "latitude": "43.6500",
    "longitude": "11.0833"
  },
  {
    "name": "Latisana",
    "latitude": "45.7833",
    "longitude": "13.0000"
  },
  {
    "name": "Lariano",
    "latitude": "41.7333",
    "longitude": "12.8333"
  },
  {
    "name": "Varedo",
    "latitude": "45.6000",
    "longitude": "9.1667"
  },
  {
    "name": "Lavello",
    "latitude": "41.0500",
    "longitude": "15.8000"
  },
  {
    "name": "Misano Adriatico",
    "latitude": "43.9667",
    "longitude": "12.7000"
  },
  {
    "name": "Castelfranco di Sotto",
    "latitude": "43.7000",
    "longitude": "10.7500"
  },
  {
    "name": "Sarezzo",
    "latitude": "45.6500",
    "longitude": "10.2000"
  },
  {
    "name": "Capo d’Orlando",
    "latitude": "38.1500",
    "longitude": "14.7333"
  },
  {
    "name": "Forlimpopoli",
    "latitude": "44.1833",
    "longitude": "12.1333"
  },
  {
    "name": "Grammichele",
    "latitude": "37.2167",
    "longitude": "14.6333"
  },
  {
    "name": "Patti",
    "latitude": "38.1333",
    "longitude": "14.9667"
  },
  {
    "name": "Rionero in Vulture",
    "latitude": "40.9167",
    "longitude": "15.6667"
  },
  {
    "name": "Quartucciu",
    "latitude": "39.2529",
    "longitude": "9.1762"
  },
  {
    "name": "Castiglion Fiorentino",
    "latitude": "43.3439",
    "longitude": "11.9189"
  },
  {
    "name": "Calderara di Reno",
    "latitude": "44.5639",
    "longitude": "11.2719"
  },
  {
    "name": "Quattro Castella",
    "latitude": "44.6333",
    "longitude": "10.4667"
  },
  {
    "name": "Sant’Angelo Lodigiano",
    "latitude": "45.2389",
    "longitude": "9.4097"
  },
  {
    "name": "Palombara Sabina",
    "latitude": "42.0667",
    "longitude": "12.7667"
  },
  {
    "name": "Apricena",
    "latitude": "41.7846",
    "longitude": "15.4436"
  },
  {
    "name": "Cairo Montenotte",
    "latitude": "44.3979",
    "longitude": "8.2778"
  },
  {
    "name": "Castelnuovo di Verona",
    "latitude": "45.4333",
    "longitude": "10.7667"
  },
  {
    "name": "Pontecorvo",
    "latitude": "41.4626",
    "longitude": "13.6676"
  },
  {
    "name": "Camponogara",
    "latitude": "45.3833",
    "longitude": "12.0667"
  },
  {
    "name": "Varazze",
    "latitude": "44.3600",
    "longitude": "8.5766"
  },
  {
    "name": "Stezzano",
    "latitude": "45.6508",
    "longitude": "9.6528"
  },
  {
    "name": "Múggia",
    "latitude": "45.6000",
    "longitude": "13.7667"
  },
  {
    "name": "Manerbio",
    "latitude": "45.3667",
    "longitude": "10.1333"
  },
  {
    "name": "Leonforte",
    "latitude": "37.6500",
    "longitude": "14.4000"
  },
  {
    "name": "San Martino di Lupari",
    "latitude": "45.6557",
    "longitude": "11.8594"
  },
  {
    "name": "Ficarazzi",
    "latitude": "38.0923",
    "longitude": "13.4639"
  },
  {
    "name": "Formello",
    "latitude": "42.0833",
    "longitude": "12.4000"
  },
  {
    "name": "Santa Maria a Monte",
    "latitude": "43.7000",
    "longitude": "10.6833"
  },
  {
    "name": "Casatenovo",
    "latitude": "45.6983",
    "longitude": "9.3117"
  },
  {
    "name": "Casale sul Sile",
    "latitude": "45.5988",
    "longitude": "12.3243"
  },
  {
    "name": "Campiglia Marittima",
    "latitude": "43.0667",
    "longitude": "10.6167"
  },
  {
    "name": "Vigodarzere",
    "latitude": "45.4500",
    "longitude": "11.8833"
  },
  {
    "name": "Piano di Sorrento",
    "latitude": "40.6333",
    "longitude": "14.4111"
  },
  {
    "name": "San Biagio di Callalta",
    "latitude": "45.6867",
    "longitude": "12.3815"
  },
  {
    "name": "Seravezza",
    "latitude": "44.0000",
    "longitude": "10.2333"
  },
  {
    "name": "Barrafranca",
    "latitude": "37.3667",
    "longitude": "14.2000"
  },
  {
    "name": "Carpenedolo",
    "latitude": "45.3654",
    "longitude": "10.4323"
  },
  {
    "name": "Noceto",
    "latitude": "44.8167",
    "longitude": "10.1833"
  },
  {
    "name": "Trebaseleghe",
    "latitude": "45.5833",
    "longitude": "12.0500"
  },
  {
    "name": "Salzano",
    "latitude": "45.5333",
    "longitude": "12.1167"
  },
  {
    "name": "Cicciano",
    "latitude": "40.9667",
    "longitude": "14.5333"
  },
  {
    "name": "Calcinato",
    "latitude": "45.4581",
    "longitude": "10.4146"
  },
  {
    "name": "Chiampo",
    "latitude": "45.5500",
    "longitude": "11.2833"
  },
  {
    "name": "Montegranaro",
    "latitude": "43.2332",
    "longitude": "13.6322"
  },
  {
    "name": "Santo Stino di Livenza",
    "latitude": "45.7333",
    "longitude": "12.6833"
  },
  {
    "name": "Lipari",
    "latitude": "38.4673",
    "longitude": "14.9554"
  },
  {
    "name": "Tezze sul Brenta",
    "latitude": "45.6862",
    "longitude": "11.7042"
  },
  {
    "name": "Cavallino",
    "latitude": "40.3102",
    "longitude": "18.2022"
  },
  {
    "name": "Loreto",
    "latitude": "43.4403",
    "longitude": "13.6074"
  },
  {
    "name": "Spilamberto",
    "latitude": "44.5333",
    "longitude": "11.0167"
  },
  {
    "name": "Monte di Procida",
    "latitude": "40.8000",
    "longitude": "14.0500"
  },
  {
    "name": "Grumo Appula",
    "latitude": "41.0167",
    "longitude": "16.7000"
  },
  {
    "name": "Monte San Giovanni Campano",
    "latitude": "41.6333",
    "longitude": "13.5167"
  },
  {
    "name": "Lauria Inferiore",
    "latitude": "40.0472",
    "longitude": "15.8358"
  },
  {
    "name": "Montecorvino Rovella",
    "latitude": "40.7000",
    "longitude": "14.9833"
  },
  {
    "name": "Monteprandone",
    "latitude": "42.9203",
    "longitude": "13.8355"
  },
  {
    "name": "Bagnolo Mella",
    "latitude": "45.4300",
    "longitude": "10.1854"
  },
  {
    "name": "Borgosesia",
    "latitude": "45.7169",
    "longitude": "8.2764"
  },
  {
    "name": "Francofonte",
    "latitude": "37.2333",
    "longitude": "14.8833"
  },
  {
    "name": "Raffadali",
    "latitude": "37.4047",
    "longitude": "13.5339"
  },
  {
    "name": "Figline Valdarno",
    "latitude": "43.6167",
    "longitude": "11.4667"
  },
  {
    "name": "Sala Consilina",
    "latitude": "40.4000",
    "longitude": "15.6000"
  },
  {
    "name": "Castel Goffredo",
    "latitude": "45.2981",
    "longitude": "10.4750"
  },
  {
    "name": "Lavagna",
    "latitude": "44.3122",
    "longitude": "9.3417"
  },
  {
    "name": "Porto Recanati",
    "latitude": "43.4299",
    "longitude": "13.6649"
  },
  {
    "name": "Avigliana",
    "latitude": "45.0794",
    "longitude": "7.3961"
  },
  {
    "name": "Calcinaia",
    "latitude": "43.6835",
    "longitude": "10.6165"
  },
  {
    "name": "Canegrate",
    "latitude": "45.5667",
    "longitude": "8.9333"
  },
  {
    "name": "Sinalunga",
    "latitude": "43.2167",
    "longitude": "11.7333"
  },
  {
    "name": "Rivarolo Canavese",
    "latitude": "45.3333",
    "longitude": "7.7167"
  },
  {
    "name": "Terrasini Favarotta",
    "latitude": "38.1500",
    "longitude": "13.0833"
  },
  {
    "name": "Fontanafredda",
    "latitude": "45.9667",
    "longitude": "12.5667"
  },
  {
    "name": "Fagnano Olona",
    "latitude": "45.6667",
    "longitude": "8.8667"
  },
  {
    "name": "Borgo San Dalmazzo",
    "latitude": "44.3333",
    "longitude": "7.4833"
  },
  {
    "name": "Menfi",
    "latitude": "37.6078",
    "longitude": "12.9686"
  },
  {
    "name": "Solofra",
    "latitude": "40.8333",
    "longitude": "14.8500"
  },
  {
    "name": "San Severino Marche",
    "latitude": "43.2289",
    "longitude": "13.1771"
  },
  {
    "name": "Bernalda",
    "latitude": "40.4167",
    "longitude": "16.6833"
  },
  {
    "name": "Olgiate Olona",
    "latitude": "45.6333",
    "longitude": "8.8833"
  },
  {
    "name": "Orzinuovi",
    "latitude": "45.4000",
    "longitude": "9.9333"
  },
  {
    "name": "San Pietro in Casale",
    "latitude": "44.7000",
    "longitude": "11.4000"
  },
  {
    "name": "Ugento",
    "latitude": "39.9333",
    "longitude": "18.1667"
  },
  {
    "name": "Morbegno",
    "latitude": "46.1333",
    "longitude": "9.5667"
  },
  {
    "name": "Sant’Agata di Militello",
    "latitude": "38.0667",
    "longitude": "14.6333"
  },
  {
    "name": "Mercogliano",
    "latitude": "40.9231",
    "longitude": "14.7428"
  },
  {
    "name": "Locri",
    "latitude": "38.2333",
    "longitude": "16.2667"
  },
  {
    "name": "Pianiga",
    "latitude": "45.4583",
    "longitude": "12.0080"
  },
  {
    "name": "Monte Sant’Angelo",
    "latitude": "41.7000",
    "longitude": "15.9667"
  },
  {
    "name": "San Prisco",
    "latitude": "41.0833",
    "longitude": "14.2833"
  },
  {
    "name": "Anzola dell’Emilia",
    "latitude": "44.5472",
    "longitude": "11.1956"
  },
  {
    "name": "Russi",
    "latitude": "44.3764",
    "longitude": "12.0334"
  },
  {
    "name": "Teano",
    "latitude": "41.2500",
    "longitude": "14.0667"
  },
  {
    "name": "Gricignano d’Aversa",
    "latitude": "40.9833",
    "longitude": "14.2333"
  },
  {
    "name": "Terranuova Bracciolini",
    "latitude": "43.5531",
    "longitude": "11.5894"
  },
  {
    "name": "Lana",
    "latitude": "46.6167",
    "longitude": "11.1667"
  },
  {
    "name": "Eraclea",
    "latitude": "45.5833",
    "longitude": "12.6833"
  },
  {
    "name": "Cinisi",
    "latitude": "38.1667",
    "longitude": "13.1000"
  },
  {
    "name": "Sedriano",
    "latitude": "45.4833",
    "longitude": "8.9667"
  },
  {
    "name": "Rottofreno",
    "latitude": "45.0579",
    "longitude": "9.5489"
  },
  {
    "name": "Gavardo",
    "latitude": "45.5875",
    "longitude": "10.4389"
  },
  {
    "name": "Motta Sant’Anastasia",
    "latitude": "37.5000",
    "longitude": "14.9667"
  },
  {
    "name": "Villa Literno",
    "latitude": "41.0096",
    "longitude": "14.0741"
  },
  {
    "name": "Calvizzano",
    "latitude": "40.9000",
    "longitude": "14.1833"
  },
  {
    "name": "Bibbiena",
    "latitude": "43.6975",
    "longitude": "11.8144"
  },
  {
    "name": "Biassono",
    "latitude": "45.6306",
    "longitude": "9.2744"
  },
  {
    "name": "Spilimbergo",
    "latitude": "46.1114",
    "longitude": "12.9017"
  },
  {
    "name": "Spresiano",
    "latitude": "45.7833",
    "longitude": "12.2500"
  },
  {
    "name": "Monte Compatri",
    "latitude": "41.8081",
    "longitude": "12.7372"
  },
  {
    "name": "Trezzo sull’Adda",
    "latitude": "45.6000",
    "longitude": "9.5167"
  },
  {
    "name": "Vecchiano",
    "latitude": "43.7833",
    "longitude": "10.3833"
  },
  {
    "name": "Carmiano",
    "latitude": "40.3461",
    "longitude": "18.0461"
  },
  {
    "name": "Rocca Priora",
    "latitude": "41.7833",
    "longitude": "12.7667"
  },
  {
    "name": "Pieve di Soligo",
    "latitude": "45.8833",
    "longitude": "12.1667"
  },
  {
    "name": "Camposampiero",
    "latitude": "45.5667",
    "longitude": "11.9333"
  },
  {
    "name": "Granarolo del l’Emilia",
    "latitude": "44.5542",
    "longitude": "11.4439"
  },
  {
    "name": "Altavilla Vicentina",
    "latitude": "45.5164",
    "longitude": "11.4597"
  },
  {
    "name": "Bitetto",
    "latitude": "41.0333",
    "longitude": "16.7500"
  },
  {
    "name": "Baranzate",
    "latitude": "45.5167",
    "longitude": "9.1000"
  },
  {
    "name": "Arluno",
    "latitude": "45.5000",
    "longitude": "8.9333"
  },
  {
    "name": "Occhiobello",
    "latitude": "44.9216",
    "longitude": "11.5812"
  },
  {
    "name": "Cornedo Vicentino",
    "latitude": "45.6167",
    "longitude": "11.3500"
  },
  {
    "name": "Taviano",
    "latitude": "39.9833",
    "longitude": "18.0833"
  },
  {
    "name": "Ronchi dei Legionari",
    "latitude": "45.8333",
    "longitude": "13.5000"
  },
  {
    "name": "Portoferraio",
    "latitude": "42.8167",
    "longitude": "10.3167"
  },
  {
    "name": "Alfonsine",
    "latitude": "44.5061",
    "longitude": "12.0411"
  },
  {
    "name": "Lizzanello",
    "latitude": "40.3047",
    "longitude": "18.2228"
  },
  {
    "name": "Monteforte Irpino",
    "latitude": "40.8928",
    "longitude": "14.7194"
  },
  {
    "name": "Borgaro Torinese",
    "latitude": "45.1500",
    "longitude": "7.6500"
  },
  {
    "name": "San Mauro Pascoli",
    "latitude": "44.1000",
    "longitude": "12.4167"
  },
  {
    "name": "San Gennaro Vesuviano",
    "latitude": "40.8667",
    "longitude": "14.5333"
  },
  {
    "name": "Giffoni Valle Piana",
    "latitude": "40.7167",
    "longitude": "14.9333"
  },
  {
    "name": "Priolo Gargallo",
    "latitude": "37.1667",
    "longitude": "15.1833"
  },
  {
    "name": "San Gregorio di Catania",
    "latitude": "37.5667",
    "longitude": "15.1167"
  },
  {
    "name": "Mazzarino",
    "latitude": "37.3000",
    "longitude": "14.2000"
  },
  {
    "name": "Susegana",
    "latitude": "45.8500",
    "longitude": "12.2500"
  },
  {
    "name": "Amelia",
    "latitude": "42.5535",
    "longitude": "12.4168"
  },
  {
    "name": "San Michele al Tagliamento",
    "latitude": "45.7636",
    "longitude": "12.9953"
  },
  {
    "name": "Sant’Ambrogio di Valpolicella",
    "latitude": "45.5209",
    "longitude": "10.8362"
  },
  {
    "name": "Lonate Pozzolo",
    "latitude": "45.6000",
    "longitude": "8.7500"
  },
  {
    "name": "Margherita di Savoia",
    "latitude": "41.3667",
    "longitude": "16.1500"
  },
  {
    "name": "Taurisano",
    "latitude": "39.9500",
    "longitude": "18.1667"
  },
  {
    "name": "Campobello di Mazara",
    "latitude": "37.6333",
    "longitude": "12.7500"
  },
  {
    "name": "Tortoreto",
    "latitude": "42.8000",
    "longitude": "13.9167"
  },
  {
    "name": "Maniago",
    "latitude": "46.1667",
    "longitude": "12.7167"
  },
  {
    "name": "Codigoro",
    "latitude": "44.8333",
    "longitude": "12.1167"
  },
  {
    "name": "Venosa",
    "latitude": "40.9667",
    "longitude": "15.8167"
  },
  {
    "name": "Fiume Veneto",
    "latitude": "45.9333",
    "longitude": "12.7333"
  },
  {
    "name": "Guspini",
    "latitude": "39.5400",
    "longitude": "8.6267"
  },
  {
    "name": "Lendinara",
    "latitude": "45.0850",
    "longitude": "11.6006"
  },
  {
    "name": "Serravalle Pistoiese",
    "latitude": "43.9000",
    "longitude": "10.8333"
  },
  {
    "name": "Torri di Quartesolo",
    "latitude": "45.5167",
    "longitude": "11.6167"
  },
  {
    "name": "Casteldaccia",
    "latitude": "38.0500",
    "longitude": "13.5333"
  },
  {
    "name": "Stradella",
    "latitude": "45.0833",
    "longitude": "9.3000"
  },
  {
    "name": "Olgiate Comasco",
    "latitude": "45.7833",
    "longitude": "8.9667"
  },
  {
    "name": "Portomaggiore",
    "latitude": "44.7000",
    "longitude": "11.8000"
  },
  {
    "name": "Finale Ligure",
    "latitude": "44.1691",
    "longitude": "8.3435"
  },
  {
    "name": "Caorle",
    "latitude": "45.6003",
    "longitude": "12.8876"
  },
  {
    "name": "Valmadrera",
    "latitude": "45.8463",
    "longitude": "9.3582"
  },
  {
    "name": "Campagnano di Roma",
    "latitude": "42.1333",
    "longitude": "12.3833"
  },
  {
    "name": "Cisternino",
    "latitude": "40.7500",
    "longitude": "17.4167"
  },
  {
    "name": "Capaci",
    "latitude": "38.1667",
    "longitude": "13.2333"
  },
  {
    "name": "Isola della Scala",
    "latitude": "45.2667",
    "longitude": "11.1333"
  },
  {
    "name": "Gardone Val Trompia",
    "latitude": "45.6833",
    "longitude": "10.1833"
  },
  {
    "name": "Siniscola",
    "latitude": "40.5743",
    "longitude": "9.6963"
  },
  {
    "name": "Nembro",
    "latitude": "45.7439",
    "longitude": "9.7594"
  },
  {
    "name": "Pulsano",
    "latitude": "40.3842",
    "longitude": "17.3547"
  },
  {
    "name": "Ponte San Pietro",
    "latitude": "45.6978",
    "longitude": "9.5881"
  },
  {
    "name": "Mestrino",
    "latitude": "45.4500",
    "longitude": "11.7667"
  },
  {
    "name": "Isola del Liri",
    "latitude": "41.6833",
    "longitude": "13.5667"
  },
  {
    "name": "Castenedolo",
    "latitude": "45.4704",
    "longitude": "10.2967"
  },
  {
    "name": "Arenzano",
    "latitude": "44.4035",
    "longitude": "8.6827"
  },
  {
    "name": "Ravanusa",
    "latitude": "37.2678",
    "longitude": "13.9697"
  },
  {
    "name": "Musile di Piave",
    "latitude": "45.6178",
    "longitude": "12.5650"
  },
  {
    "name": "Montegrotto Terme",
    "latitude": "45.3333",
    "longitude": "11.7833"
  },
  {
    "name": "Matino",
    "latitude": "40.0333",
    "longitude": "18.1333"
  },
  {
    "name": "Paullo",
    "latitude": "45.4167",
    "longitude": "9.4000"
  },
  {
    "name": "Casièr",
    "latitude": "45.6436",
    "longitude": "12.2953"
  },
  {
    "name": "Riesi",
    "latitude": "37.2833",
    "longitude": "14.0833"
  },
  {
    "name": "Cave",
    "latitude": "41.8167",
    "longitude": "12.9333"
  },
  {
    "name": "Creazzo",
    "latitude": "45.5333",
    "longitude": "11.4833"
  },
  {
    "name": "Ovada",
    "latitude": "44.6392",
    "longitude": "8.6464"
  },
  {
    "name": "Avigliano",
    "latitude": "40.7333",
    "longitude": "15.7167"
  },
  {
    "name": "Zero Branco",
    "latitude": "45.6000",
    "longitude": "12.1667"
  },
  {
    "name": "Acate",
    "latitude": "37.0253",
    "longitude": "14.4925"
  },
  {
    "name": "Paceco",
    "latitude": "37.9833",
    "longitude": "12.5500"
  },
  {
    "name": "Castelvetro di Modena",
    "latitude": "44.5067",
    "longitude": "10.9472"
  },
  {
    "name": "Bitritto",
    "latitude": "41.0500",
    "longitude": "16.8333"
  },
  {
    "name": "Caldogno",
    "latitude": "45.6118",
    "longitude": "11.5076"
  },
  {
    "name": "Sant’Ilario d’Enza",
    "latitude": "44.7667",
    "longitude": "10.4500"
  },
  {
    "name": "Camisano Vicentino",
    "latitude": "45.5167",
    "longitude": "11.7167"
  },
  {
    "name": "Melito di Porto Salvo",
    "latitude": "37.9167",
    "longitude": "15.7833"
  },
  {
    "name": "Belmonte Mezzagno",
    "latitude": "38.0500",
    "longitude": "13.3833"
  },
  {
    "name": "La Maddalena",
    "latitude": "41.2142",
    "longitude": "9.4083"
  },
  {
    "name": "Castano Primo",
    "latitude": "45.5500",
    "longitude": "8.7667"
  },
  {
    "name": "Loano",
    "latitude": "44.1290",
    "longitude": "8.2598"
  },
  {
    "name": "San Giustino",
    "latitude": "43.5500",
    "longitude": "12.1833"
  },
  {
    "name": "Santa Flavia",
    "latitude": "38.0833",
    "longitude": "13.5333"
  },
  {
    "name": "Venafro",
    "latitude": "41.4833",
    "longitude": "14.0500"
  },
  {
    "name": "Piazzola sul Brenta",
    "latitude": "45.5333",
    "longitude": "11.7667"
  },
  {
    "name": "Carbonera",
    "latitude": "45.6833",
    "longitude": "12.2833"
  },
  {
    "name": "Cologno al Serio",
    "latitude": "45.5833",
    "longitude": "9.7000"
  },
  {
    "name": "Cividale del Friuli",
    "latitude": "46.0905",
    "longitude": "13.4350"
  },
  {
    "name": "Sant’Antìoco",
    "latitude": "39.0654",
    "longitude": "8.4540"
  },
  {
    "name": "Sant’Agata de’ Goti",
    "latitude": "41.0893",
    "longitude": "14.4974"
  },
  {
    "name": "Montopoli in Val d’Arno",
    "latitude": "43.6744",
    "longitude": "10.7503"
  },
  {
    "name": "Sesto Calende",
    "latitude": "45.7333",
    "longitude": "8.6333"
  },
  {
    "name": "Cerese",
    "latitude": "45.1167",
    "longitude": "10.7833"
  },
  {
    "name": "Corleone",
    "latitude": "37.8167",
    "longitude": "13.3000"
  },
  {
    "name": "Pellezzano",
    "latitude": "40.7333",
    "longitude": "14.7667"
  },
  {
    "name": "Aulla",
    "latitude": "44.2167",
    "longitude": "9.9667"
  },
  {
    "name": "Tortolì",
    "latitude": "39.9333",
    "longitude": "9.6500"
  },
  {
    "name": "Trecastagni",
    "latitude": "37.6167",
    "longitude": "15.0833"
  },
  {
    "name": "Scalea",
    "latitude": "39.8167",
    "longitude": "15.8000"
  },
  {
    "name": "Cepagatti",
    "latitude": "42.3658",
    "longitude": "14.0767"
  },
  {
    "name": "Racale",
    "latitude": "39.9667",
    "longitude": "18.1000"
  },
  {
    "name": "Castel Mella",
    "latitude": "45.5000",
    "longitude": "10.1500"
  },
  {
    "name": "Cerreto Guidi",
    "latitude": "43.7617",
    "longitude": "10.8771"
  },
  {
    "name": "Montechiarugolo",
    "latitude": "44.6934",
    "longitude": "10.4224"
  },
  {
    "name": "Atripalda",
    "latitude": "40.9167",
    "longitude": "14.8256"
  },
  {
    "name": "Monte San Pietro",
    "latitude": "44.4578",
    "longitude": "11.1990"
  },
  {
    "name": "Santa Croce Camerina",
    "latitude": "36.8272",
    "longitude": "14.5239"
  },
  {
    "name": "Inzago",
    "latitude": "45.5333",
    "longitude": "9.4833"
  },
  {
    "name": "Bertinoro",
    "latitude": "44.1500",
    "longitude": "12.1333"
  },
  {
    "name": "San Valentino Torio",
    "latitude": "40.7911",
    "longitude": "14.6033"
  },
  {
    "name": "Cazzago San Martino",
    "latitude": "45.5817",
    "longitude": "10.0258"
  },
  {
    "name": "Barberino di Mugello",
    "latitude": "44.0000",
    "longitude": "11.2333"
  },
  {
    "name": "Cameri",
    "latitude": "45.5000",
    "longitude": "8.6500"
  },
  {
    "name": "Trofarello",
    "latitude": "44.9833",
    "longitude": "7.7333"
  },
  {
    "name": "Cori",
    "latitude": "41.6500",
    "longitude": "12.9167"
  },
  {
    "name": "Celano",
    "latitude": "42.0843",
    "longitude": "13.5478"
  },
  {
    "name": "Taormina",
    "latitude": "37.8500",
    "longitude": "15.3000"
  },
  {
    "name": "Gemona del Friuli",
    "latitude": "46.2833",
    "longitude": "13.1333"
  },
  {
    "name": "Ramacca",
    "latitude": "37.3833",
    "longitude": "14.7000"
  },
  {
    "name": "Botticino Sera",
    "latitude": "45.5339",
    "longitude": "10.3078"
  },
  {
    "name": "Medesano",
    "latitude": "44.7568",
    "longitude": "10.1403"
  },
  {
    "name": "Grezzana",
    "latitude": "45.5167",
    "longitude": "11.0167"
  },
  {
    "name": "San Felice sul Panaro",
    "latitude": "44.8393",
    "longitude": "11.1413"
  },
  {
    "name": "Motta di Livenza",
    "latitude": "45.7797",
    "longitude": "12.6086"
  },
  {
    "name": "Capena",
    "latitude": "42.1403",
    "longitude": "12.5403"
  },
  {
    "name": "Alassio",
    "latitude": "44.0079",
    "longitude": "8.1730"
  },
  {
    "name": "Montale",
    "latitude": "43.9333",
    "longitude": "11.0167"
  },
  {
    "name": "Randazzo",
    "latitude": "37.8833",
    "longitude": "14.9500"
  },
  {
    "name": "Itri",
    "latitude": "41.2833",
    "longitude": "13.5333"
  },
  {
    "name": "Trevignano",
    "latitude": "45.7335",
    "longitude": "12.0940"
  },
  {
    "name": "Alberobello",
    "latitude": "40.7841",
    "longitude": "17.2375"
  },
  {
    "name": "Cornate d’Adda",
    "latitude": "45.6500",
    "longitude": "9.4667"
  },
  {
    "name": "Gambettola",
    "latitude": "44.1167",
    "longitude": "12.3333"
  },
  {
    "name": "Cadelbosco di Sopra",
    "latitude": "44.7667",
    "longitude": "10.6000"
  },
  {
    "name": "Campolongo Maggiore",
    "latitude": "45.3305",
    "longitude": "12.0483"
  },
  {
    "name": "Salemi",
    "latitude": "37.8167",
    "longitude": "12.8000"
  },
  {
    "name": "Massa Lombarda",
    "latitude": "44.4500",
    "longitude": "11.8167"
  },
  {
    "name": "Salò",
    "latitude": "45.6000",
    "longitude": "10.5333"
  },
  {
    "name": "Peschiera del Garda",
    "latitude": "45.4386",
    "longitude": "10.6886"
  },
  {
    "name": "Atessa",
    "latitude": "42.0667",
    "longitude": "14.4500"
  },
  {
    "name": "Montecchio Emilia",
    "latitude": "44.6986",
    "longitude": "10.4486"
  },
  {
    "name": "Poirino",
    "latitude": "44.9167",
    "longitude": "7.8500"
  },
  {
    "name": "Ozieri",
    "latitude": "40.5849",
    "longitude": "9.0033"
  },
  {
    "name": "Martinengo",
    "latitude": "45.5704",
    "longitude": "9.7674"
  },
  {
    "name": "Mussomeli",
    "latitude": "37.5833",
    "longitude": "13.7500"
  },
  {
    "name": "Coriano",
    "latitude": "43.9691",
    "longitude": "12.6006"
  },
  {
    "name": "Fiuggi",
    "latitude": "41.8000",
    "longitude": "13.2167"
  },
  {
    "name": "Torre Santa Susanna",
    "latitude": "40.4667",
    "longitude": "17.7333"
  },
  {
    "name": "Macerata Campania",
    "latitude": "41.0667",
    "longitude": "14.2667"
  },
  {
    "name": "San Marzano sul Sarno",
    "latitude": "40.7697",
    "longitude": "14.5947"
  },
  {
    "name": "Castelnovo ne’ Monti",
    "latitude": "44.4333",
    "longitude": "10.4000"
  },
  {
    "name": "Procida",
    "latitude": "40.7667",
    "longitude": "14.0333"
  },
  {
    "name": "Cutro",
    "latitude": "39.0342",
    "longitude": "16.9819"
  },
  {
    "name": "Castelli Calepio",
    "latitude": "45.6333",
    "longitude": "9.9000"
  },
  {
    "name": "Canelli",
    "latitude": "44.7208",
    "longitude": "8.2928"
  },
  {
    "name": "Trabia",
    "latitude": "38.0000",
    "longitude": "13.6500"
  },
  {
    "name": "Partanna",
    "latitude": "37.7289",
    "longitude": "12.8894"
  },
  {
    "name": "Bordighera",
    "latitude": "43.7789",
    "longitude": "7.6721"
  },
  {
    "name": "Cislago",
    "latitude": "45.6500",
    "longitude": "8.9667"
  },
  {
    "name": "Polistena",
    "latitude": "38.4000",
    "longitude": "16.0667"
  },
  {
    "name": "Concordia Sagittaria",
    "latitude": "45.7667",
    "longitude": "12.8500"
  },
  {
    "name": "Valdobbiadene",
    "latitude": "45.9000",
    "longitude": "11.9167"
  },
  {
    "name": "Badia Polesine",
    "latitude": "45.0940",
    "longitude": "11.4934"
  },
  {
    "name": "Langhirano",
    "latitude": "44.6167",
    "longitude": "10.2667"
  },
  {
    "name": "Rignano Flaminio",
    "latitude": "42.2000",
    "longitude": "12.4833"
  },
  {
    "name": "Campi Salentina",
    "latitude": "40.4000",
    "longitude": "18.0167"
  },
  {
    "name": "Nizza Monferrato",
    "latitude": "44.7747",
    "longitude": "8.3550"
  },
  {
    "name": "Mandello del Lario",
    "latitude": "45.9167",
    "longitude": "9.3167"
  },
  {
    "name": "San Maurizio Canavese",
    "latitude": "45.2171",
    "longitude": "7.6305"
  },
  {
    "name": "Montignoso",
    "latitude": "44.0167",
    "longitude": "10.1667"
  },
  {
    "name": "Usmate Velate",
    "latitude": "45.6500",
    "longitude": "9.3500"
  },
  {
    "name": "Volterra",
    "latitude": "43.4000",
    "longitude": "10.8667"
  },
  {
    "name": "Cittanova",
    "latitude": "38.3500",
    "longitude": "16.0833"
  },
  {
    "name": "Induno Olona",
    "latitude": "45.8500",
    "longitude": "8.8333"
  },
  {
    "name": "Boscotrecase",
    "latitude": "40.7833",
    "longitude": "14.4667"
  },
  {
    "name": "Isola Vicentina",
    "latitude": "45.6333",
    "longitude": "11.4500"
  },
  {
    "name": "Bibbiano",
    "latitude": "44.6629",
    "longitude": "10.4739"
  },
  {
    "name": "Conselve",
    "latitude": "45.2333",
    "longitude": "11.8667"
  },
  {
    "name": "Goito",
    "latitude": "45.2500",
    "longitude": "10.6667"
  },
  {
    "name": "Altofonte",
    "latitude": "38.0500",
    "longitude": "13.3000"
  },
  {
    "name": "Locate di Triulzi",
    "latitude": "45.3500",
    "longitude": "9.2167"
  },
  {
    "name": "Volpago del Montello",
    "latitude": "45.7833",
    "longitude": "12.1167"
  },
  {
    "name": "Terralba",
    "latitude": "39.7197",
    "longitude": "8.6363"
  },
  {
    "name": "Bomporto",
    "latitude": "44.7333",
    "longitude": "11.0333"
  },
  {
    "name": "Silea",
    "latitude": "45.6547",
    "longitude": "12.2967"
  },
  {
    "name": "Vigasio",
    "latitude": "45.3167",
    "longitude": "10.9333"
  },
  {
    "name": "Capodrise",
    "latitude": "41.0500",
    "longitude": "14.3000"
  },
  {
    "name": "Lerici",
    "latitude": "44.0763",
    "longitude": "9.9111"
  },
  {
    "name": "Bisignano",
    "latitude": "39.5073",
    "longitude": "16.2811"
  },
  {
    "name": "Bagnara Calabra",
    "latitude": "38.2833",
    "longitude": "15.8167"
  },
  {
    "name": "Sedico",
    "latitude": "46.1167",
    "longitude": "12.1000"
  },
  {
    "name": "Cingoli",
    "latitude": "43.3742",
    "longitude": "13.2164"
  },
  {
    "name": "Busca",
    "latitude": "44.5167",
    "longitude": "7.4667"
  },
  {
    "name": "Novi di Modena",
    "latitude": "44.8934",
    "longitude": "10.9010"
  },
  {
    "name": "Bucine",
    "latitude": "43.4775",
    "longitude": "11.6158"
  },
  {
    "name": "Sermoneta",
    "latitude": "41.5500",
    "longitude": "12.9833"
  },
  {
    "name": "Asola",
    "latitude": "45.2167",
    "longitude": "10.4167"
  },
  {
    "name": "Vaiano",
    "latitude": "43.9667",
    "longitude": "11.1167"
  },
  {
    "name": "San Giorgio del Sannio",
    "latitude": "41.0667",
    "longitude": "14.8500"
  },